Title,Phone Number,Image URL,Direction Link,Address,Latitude,Longitude,Rating,time
Sunil Plumber,7982918669,https://lh5.googleusercontent.com/p/AF1QipPf0F4XlWag1do4lTk3_Zme91LsUXOLlHhpiPXV=w114-h114-n-k-no,"https://maps.google.com/maps?um=1&fb=1&gl=in&sa=X&geocode=KQN0JyTXAw05MeQPP3eHZY1L&daddr=B+10,+Model+Town+Phase+2,+Pocket+D,+Phase+2,+Model+Town,+Delhi,+110009&ved=2ahUKEwiw-a_r2bmEAxU81IQAHXjfAjMQ48ADegQIABAq","B 10, Model Town Phase 2, Pocket D, Phase 2, Model Town, Delhi, 110009",28.703002349039,77.193110992374,4.5,08:00 PM
DHARAMVEER PLUMBERS,9711309692,https://lh5.googleusercontent.com/p/AF1QipO0eggi62UJ3sOUuabgarlX8J78j_1la4n65DIv=w114-h114-n-k-no,"https://maps.google.com/maps?um=1&fb=1&gl=in&sa=X&geocode=KT8I2u0lAw05MaUs8riSQ4cF&daddr=BABA+CORNERS,+Taxi+Stand,+B-10,+Block+B,+Model+Town+Phase+I,+Model+Town,+Delhi,+110009&ved=2ahUKEwiw-a_r2bmEAxU81IQAHXjfAjMQ48ADegQIABA1","BABA CORNERS, Taxi Stand, B-10, Block B, Model Town Phase I, Model Town, Delhi, 110009",28.699188036886,77.189893734463,4.8,6:30 PM
Ajay Plumber Service,9717981183,https://lh5.googleusercontent.com/p/AF1QipPNAdWae7zKTt60wc6MR7tCsM-vEBiaCYW1WkEk=w114-h114-n-k-no,"https://maps.google.com/maps?um=1&fb=1&gl=in&sa=X&geocode=KXcomnqBUwFhMYDY-LQtmY_a&daddr=railway+station,+S-36/130,+Gandhi+camp,+Okhla,+New+Delhi,+Delhi+110020&ved=2ahUKEwiw-a_r2bmEAxU81IQAHXjfAjMQ48ADegQIABA_","railway station, S-36/130, Gandhi camp, Okhla, New Delhi, Delhi 110020",28.521951795942,77.281999521154,4.8,06:00 PM
Plumber Raseed,8700082522,https://lh5.googleusercontent.com/p/AF1QipNK7EFg96nXEIen0XEVCqoYQVnm_ffi41uZEKCJ=w114-h114-n-k-no,"https://maps.google.com/maps?um=1&fb=1&gl=in&sa=X&geocode=KZdmPrjlAw05Mcr1MWjpN-d4&daddr=U+-+39+U+block+Near+Shadipur+Metro+Station,+West+Patel+Nagar,+Delhi,+110008&ved=2ahUKEwiw-a_r2bmEAxU81IQAHXjfAjMQ48ADegQIABBI","U - 39 U block Near Shadipur Metro Station, West Patel Nagar, Delhi, 110008",28.65202,77.1578,4.8,6:30 PM
Devender plumber,9313770041,https://lh5.googleusercontent.com/p/AF1QipOPo-UOWbC1ShXW9ijtnXLPD0xCEA0NwfdjNzdF=w114-h114-n-k-no,"https://maps.google.com/maps?um=1&fb=1&gl=in&sa=X&geocode=KRmN3Vij4ww5MduPAT5agoi4&daddr=R+92+2nd+floor,+Khirki+Extension,+Malviya+Nagar,+New+Delhi,+Delhi+110017&ved=2ahUKEwiw-a_r2bmEAxU81IQAHXjfAjMQ48ADegQIABBS","R 92 2nd floor, Khirki Extension, Malviya Nagar, New Delhi, Delhi 110017",28.535380541437,77.217487149729,4.6,6:30 PM
Nayak Plumbing Services,6372855883,https://lh5.googleusercontent.com/p/AF1QipOvtTfNedMPAuR18tIpeg5ezzElxsSphPjFAjHm=w114-h114-n-k-no,"https://maps.google.com/maps?um=1&fb=1&gl=in&sa=X&geocode=KUPJvYcqAw05Mb2DE4vJAMrK&daddr=2A,+near+RK+puram,+Bhikaji+Cama+Place,+Rama+Krishna+Puram,+New+Delhi,+Delhi+110049&ved=2ahUKEwiw-a_r2bmEAxU81IQAHXjfAjMQ48ADegQIABBc","2A, near RK puram, Bhikaji Cama Place, Rama Krishna Puram, New Delhi, Delhi 110049",28.56959,77.18648,4.7,6:30 PM
Plumber All service,9891382449,https://lh5.googleusercontent.com/p/AF1QipMk6Sel1zwiqEDb2-D4eEHfToMpcb91lka9sVzZ=w114-h114-n-k-no,"https://maps.google.com/maps?um=1&fb=1&gl=in&sa=X&geocode=KbGosKSy_Qw5MRqulTPpct4M&daddr=Vikas+Marg,+Veer+Savarkar+Block,+Block+D,+Laxmi+Nagar,+New+Delhi,+Delhi,+110092&ved=2ahUKEwiw-a_r2bmEAxU81IQAHXjfAjMQ48ADegQIABBl","Vikas Marg, Veer Savarkar Block, Block D, Laxmi Nagar, New Delhi, Delhi, 110092",28.632163467684,77.279671457319,4.3,6:30 PM
‡§∞‡§æ‡§π‡•Å‡§≤ ‡§™‡•ç‡§≤‡§Ç‡§¨‡§∞,9953876412,https://lh5.googleusercontent.com/p/AF1QipPetpPNiSZXvcgoBe4z8a48CBpaxHHZlM8iNFSV=w114-h114-n-k-no,"https://maps.google.com/maps?um=1&fb=1&gl=in&sa=X&geocode=KXeEJF1WAQ05MbTi51thvNml&daddr=1/14,+Block+Pocket,+I,+1,+Sector+16,+Rohini,+Delhi,+110085&ved=2ahUKEwiw-a_r2bmEAxU81IQAHXjfAjMQ48ADegQIABBw","1/14, Block Pocket, I, 1, Sector 16, Rohini, Delhi, 110085",28.728905323045,77.115135651558,4.9,6:30 PM
Ayodhya Plumber and Contractor,7065141992,https://lh5.googleusercontent.com/p/AF1QipPdWsZYPxs75lpkTegCW_N_jIXODbTtOLZPrHDF=w114-h114-n-k-no,"https://maps.google.com/maps?um=1&fb=1&gl=in&sa=X&geocode=KRlzuVhA_Qw5MUjicchF7-j6&daddr=E4/5,+Block+E+4,+Jhandewalan+Extension,+Jhandewalan,+Delhi,+New+Delhi,+Delhi+110055&ved=2ahUKEwiw-a_r2bmEAxU81IQAHXjfAjMQ48ADegQIABB6","E4/5, Block E 4, Jhandewalan Extension, Jhandewalan, Delhi, New Delhi, Delhi 110055",28.646614591775,77.202891034344,4.9,08:00 PM
Rajeev plumber,8757784966,https://lh5.googleusercontent.com/p/AF1QipMqJ_MeiG_etUw7LFlzP_hbDOedugoUcLqlsIGy=w114-h114-n-k-no,"https://maps.google.com/maps?um=1&fb=1&gl=in&sa=X&geocode=KaWH_PoH4ww5MYhbko7Uh1ju&daddr=129,+Block+B+7,+Arjun+Nagar,+Safdarjung+Enclave,+New+Delhi,+Delhi+110029&ved=2ahUKEwiw-a_r2bmEAxU81IQAHXjfAjMQ48ADegUIABCDAQ","129, Block B 7, Arjun Nagar, Safdarjung Enclave, New Delhi, Delhi 110029",28.561626141565,77.19889776906,4.2,6:30 PM
Plumbing plumber at home service,8750821803,https://lh5.googleusercontent.com/p/AF1QipPR9RRmDu72H29_qSE6UefY-1HIQGtAKoSlKxD-=w114-h114-n-k-no,"https://maps.google.com/maps?um=1&fb=1&gl=in&sa=X&geocode=KTfOc1VN_Qw5MccXv6tgLCqv&daddr=7262,+GT+Karnal+Rd,+Prem+Nagar,+Block+22,+Shakti+Nagar,+New+Delhi,+Delhi,+110007&ved=2ahUKEwiw-a_r2bmEAxU81IQAHXjfAjMQ48ADegUIABCWAQ","7262, GT Karnal Rd, Prem Nagar, Block 22, Shakti Nagar, New Delhi, Delhi, 110007",28.680369638475,77.199301045981,4.7,6:30 PM
Nk plumber,9910870198,https://lh5.googleusercontent.com/p/AF1QipOvy7z9DrxwqY8nFDu98gTqEL_0O268VVscRe32=w114-h114-n-k-no,"https://maps.google.com/maps?um=1&fb=1&gl=in&sa=X&geocode=KatTr6gdHw05MWBg4sOjVKH7&daddr=near+Pahalwan+Dhaba,+Mehrauli+Village,+MehrauliNew,+New+Delhi,+Delhi+110030&ved=2ahUKEwiw-a_r2bmEAxU81IQAHXjfAjMQ48ADegUIABChAQ","near Pahalwan Dhaba, Mehrauli Village, MehrauliNew, New Delhi, Delhi 110030",28.52093,77.18152,4.8,6:30 PM
Khalid Plumber,9711184725,https://lh5.googleusercontent.com/p/AF1QipMrmrl-cCySYlIhuPTvDARM71q5STac37t7d61S=w114-h114-n-k-no,"https://maps.google.com/maps?um=1&fb=1&gl=in&sa=X&geocode=KeMkdcom_gw5MfrAWcWNGFkO&daddr=Gali+No.5,+Main+Road+Sant+Nagar,+near+Sant+Hospital,+Burari,+Delhi+110084&ved=2ahUKEwiw-a_r2bmEAxU81IQAHXjfAjMQ48ADegUIABCqAQ","Gali No.5, Main Road Sant Nagar, near Sant Hospital, Burari, Delhi 110084",28.74415666033,77.199389401645,4.8,6:30 PM
Ajay Kumar Shree Plumbing group iti & Satishkumar,9871041634,https://lh5.googleusercontent.com/p/AF1QipPFM7vzuCX3RyO_b-yKH6DabZXImd338Ex4JIqF=w114-h114-n-k-no,"https://maps.google.com/maps?um=1&fb=1&gl=in&sa=X&geocode=KY0X1L_SBQ05MWB6hnX5NlEc&daddr=Raksha+Enclave,+293b,+Gali+Number+4,+Sector+1,+Mohan+Garden,+Uttam+Nagar,+New+Delhi,+Delhi,+110059&ved=2ahUKEwiw-a_r2bmEAxU81IQAHXjfAjMQ48ADegUIABC1AQ","Raksha Enclave, 293b, Gali Number 4, Sector 1, Mohan Garden, Uttam Nagar, New Delhi, Delhi, 110059",28.622290104902,77.055394846238,4.6,6:30 PM
Omvir plumber and electrician,9312682274,https://lh5.googleusercontent.com/p/AF1QipMx8eADGCRpCJsxfqLWcO4oELR_HE81wrqpahQg=w114-h114-n-k-no,"https://maps.google.com/maps?um=1&fb=1&gl=in&sa=X&geocode=KW3EySFoGw05MZYu3pm9OhpD&daddr=HDFC+Bank+ATM,+House+number+1183,+Gali+No.+12,+Kapas+Hera,+New+Delhi,+Delhi+110037&ved=2ahUKEwiw-a_r2bmEAxU81IQAHXjfAjMQ48ADegUIABC-AQ","HDFC Bank ATM, House number 1183, Gali No. 12, Kapas Hera, New Delhi, Delhi 110037",28.523418951895,77.084149361938,4.4,07:00 PM
Plumber,9958190834,https://lh5.googleusercontent.com/p/AF1QipNz5bwp5Efi-WR1tDegxCB6stAjOj8GXxaFZ8vs=w114-h114-n-k-no,"https://maps.google.com/maps?um=1&fb=1&gl=in&sa=X&geocode=KTnhOQBeBQ05MaRePVdoTzVI&daddr=Shop+No+615,+near+Thaana,+Uttam+Nagar,+New+Delhi,+Delhi+110059&ved=2ahUKEwiw-a_r2bmEAxU81IQAHXjfAjMQ48ADegUIABDRAQ","Shop No 615, near Thaana, Uttam Nagar, New Delhi, Delhi 110059",28.619669722391,77.062273492075,4.8,6:30 PM
"HARI PLUMBING SERVICES in Vasant Kunj, Delhi",7042070493,https://lh5.googleusercontent.com/p/AF1QipOKegp92qOk_Tk8w75U4AwzQZavfaP-3iDZbsFT=w114-h114-n-k-no,"https://maps.google.com/maps?um=1&fb=1&gl=in&sa=X&geocode=KVGQ_uRO_Qw5MSIcTczhcsZe&daddr=1/11main,+Shankar+Nagar+Gali,+Raghubar+Pura+Rd,+Delhi,+110031&ved=2ahUKEwiw-a_r2bmEAxU81IQAHXjfAjMQ48ADegUIABDbAQ","1/11main, Shankar Nagar Gali, Raghubar Pura Rd, Delhi, 110031",28.668100418175,77.265190348967,4.3,6:30 PM
Khan Plumber,9719719036,https://lh5.googleusercontent.com/p/AF1QipOYU1XdkPsfVxomlwVnLdqS5Oy-8Ppd_JoPdaAq=w114-h114-n-k-no,"https://maps.google.com/maps?um=1&fb=1&gl=in&sa=X&geocode=Ka08z1iYAw05MTWGbsMP57uI&daddr=Raj+plumber+Baba+corner+Texy+stand,+B-10,+Model+Town+3rd+Main+Rd,+Model+Town+Phase+2,+Delhi,+110009&ved=2ahUKEwiw-a_r2bmEAxU81IQAHXjfAjMQ48ADegUIABDlAQ","Raj plumber Baba corner Texy stand, B-10, Model Town 3rd Main Rd, Model Town Phase 2, Delhi, 110009",28.703002349039,77.193110992374,4.5,6:30 PM
RAJ PLUMBER,9711309692,https://lh5.googleusercontent.com/p/AF1QipNq1ZuZgOl0gDa4NvpprZ9o-WJS4_JzDvclnDlk=w114-h114-n-k-no,"https://maps.google.com/maps?um=1&fb=1&gl=in&sa=X&geocode=Ka08z1iYAw05MTWGbsMP57uI&daddr=Raj+plumber+Baba+corner+Texy+stand,+B-10,+Model+Town+3rd+Main+Rd,+Model+Town+Phase+2,+Delhi,+110009&ved=2ahUKEwiA-5OB2rmEAxUK54QAHTFwCAoQ48ADegQIABAr","Raj plumber Baba corner Texy stand, B-10, Model Town 3rd Main Rd, Model Town Phase 2, Delhi, 110009",28.703002349039,77.193110992374,4.9,07:00 PM
KH PLUMBING SARVESH,8273114101,https://lh5.googleusercontent.com/p/AF1QipPI5Khv2wONl_PehgHlvPnLxhdW4qeLo7XdpZ0y=w114-h114-n-k-no,"https://maps.google.com/maps?um=1&fb=1&gl=in&sa=X&geocode=KfdxRK5eBQ05MSk_nRO6Fqrf&daddr=Hastsal+Vihar,+Hastsal+Village,+Hastsal,+Delhi,+110059&ved=2ahUKEwiA-5OB2rmEAxUK54QAHTFwCAoQ48ADegQIABA2","Hastsal Vihar, Hastsal Village, Hastsal, Delhi, 110059",28.631909956406,77.057973078256,4.9,6:30 PM
Bestmistri,6370578476,https://lh5.googleusercontent.com/p/AF1QipNuuwsj7lbtee2DWzA3-K_FQMly3anp8RsyDvN0=w114-h114-n-k-no,"https://maps.google.com/maps?um=1&fb=1&gl=in&sa=X&geocode=Kbvp39p84ww5Maa9XIVMZOe7&daddr=A-85/D+Amritpuri,+Garhi,+East+of+Kailash,+New+Delhi,+Delhi+110065&ved=2ahUKEwiA-5OB2rmEAxUK54QAHTFwCAoQ48ADegQIABBB","A-85/D Amritpuri, Garhi, East of Kailash, New Delhi, Delhi 110065",28.559447886555,77.252300221671,4.8,6:30 PM
Suriyaplumbar service New Delhi,8882982693,https://lh5.googleusercontent.com/p/AF1QipPdnx0puO3Er0EMheveVN8Q00UHsQILG7Qh0S_i=w114-h114-n-k-no,"https://maps.google.com/maps?um=1&fb=1&gl=in&sa=X&geocode=KQX295pAGw05MXvX4oFuu2Rm&daddr=West,+near+Dwarka,+Pocket+4,+Sector+11+Dwarka,+Dwarka,+Delhi,+New+Delhi,+Delhi+110075&ved=2ahUKEwiA-5OB2rmEAxUK54QAHTFwCAoQ48ADegQIABBL","West, near Dwarka, Pocket 4, Sector 11 Dwarka, Dwarka, Delhi, New Delhi, Delhi 110075",28.586594319824,77.057772513373,4.8,6:30 PM
Plumbing all work,9958299490,https://lh5.googleusercontent.com/p/AF1QipPxDeznyyKXPOAbOzlII-BVUsE7nztTkeGgSU5u=w114-h114-n-k-no,"https://maps.google.com/maps?um=1&fb=1&gl=in&sa=X&geocode=Ken-vgYOBQ05MVqKbqTjpJQc&daddr=H.+No.+-A91+Gali+no.+4B,+near+st.+Thomas+school,+Block+A,+Goyla+Dairy,+Goyla+Village,+New+Delhi,+Delhi,+110071&ved=2ahUKEwiA-5OB2rmEAxUK54QAHTFwCAoQ48ADegQIABBV","H. No. -A91 Gali no. 4B, near st. Thomas school, Block A, Goyla Dairy, Goyla Village, New Delhi, Delhi, 110071",28.643829847431,77.278719956013,4.2,6:30 PM
Bhavesh sharma civil works (plumber),9643875897,https://lh5.googleusercontent.com/p/AF1QipMxGckxenhPDDDAkddtGVZLTA0CsZ8Zo5LewIKD=w114-h114-n-k-no,"https://maps.google.com/maps?um=1&fb=1&gl=in&sa=X&geocode=KZcHe7zpAw05MSQeOs05rkLZ&daddr=2151/17A/2,+near+DGB+POST+OFFICE,+New+Patel+Nagar,+Shadipur,+Delhi,+110008&ved=2ahUKEwiA-5OB2rmEAxUK54QAHTFwCAoQ48ADegQIABBe","2151/17A/2, near DGB POST OFFICE, New Patel Nagar, Shadipur, Delhi, 110008",28.665011493838,77.167065765243,5,6:30 PM
Ratnakar Plumber Services-Plumber Services in ( Kalkaji ) New Delhi,9718281072,https://lh5.googleusercontent.com/p/AF1QipNFVECthoV8Ob4ztvkOtrG0ddmSuxqMkuXpJUkL=w114-h114-n-k-no,"https://maps.google.com/maps?um=1&fb=1&gl=in&sa=X&geocode=KenUKkZ54Qw5McYxxzrgIkqa&daddr=K.+K.+Enterprises,+B-99,+Near+Gol+Chakkar,+Kalkaji,+Delhi+110019&ved=2ahUKEwiA-5OB2rmEAxUK54QAHTFwCAoQ48ADegQIABBl","K. K. Enterprises, B-99, Near Gol Chakkar, Kalkaji, Delhi 110019",28.54239,77.25271,4.4,6:30 PM
Deepak Plumber Works,9810961032,https://lh5.googleusercontent.com/p/AF1QipOARrg-94e_dY3f2OiAY6k9AG-aKSOYmezOW4YH=w114-h114-n-k-no,"https://maps.google.com/maps?um=1&fb=1&gl=in&sa=X&geocode=KT2lQDKh_Aw5MTw_RJUdm3zU&daddr=New+Govindpura,+Krishna+Nagar,+Delhi,+110051&ved=2ahUKEwiA-5OB2rmEAxUK54QAHTFwCAoQ48ADegQIABBs","New Govindpura, Krishna Nagar, Delhi, 110051",28.649356460744,77.281941917648,4.1,08:00 PM
Brij Kishor and Company : Plumber in rajouri garden,7982918669,https://lh5.googleusercontent.com/p/AF1QipMAZILRs2SxCgQpgnnZfVALhqiere7vwKg2v5tX=w114-h114-n-k-no,"https://maps.google.com/maps?um=1&fb=1&gl=in&sa=X&geocode=Kd2YZOpqAw05MdQV8KlFVeoi&daddr=S-21,+Janta+Market,+Rajouri+Garden,+Delhi,+110027&ved=2ahUKEwiA-5OB2rmEAxUK54QAHTFwCAoQ48ADegQIABBz","S-21, Janta Market, Rajouri Garden, Delhi, 110027",28.63884,77.12395,4.2,6:30 PM
Sunil plumber,8954779705,https://lh5.googleusercontent.com/p/AF1QipMxMzDSO2suK6o13jPmc58XaLAoXgGe_C6HYi1J=w114-h114-n-k-no,"https://maps.google.com/maps?um=1&fb=1&gl=in&sa=X&geocode=KVPAMoayGw05MQv13vMjstSD&daddr=Rzp-122+raj+nagar+part+-2+palam+colony+Sanatan+dharma+mandir+wali+gali,+Street+Number+2,+Palam,+Delhi,+110077&ved=2ahUKEwiA-5OB2rmEAxUK54QAHTFwCAoQ48ADegQIABB9","Rzp-122 raj nagar part -2 palam colony Sanatan dharma mandir wali gali, Street Number 2, Palam, Delhi, 110077",28.573232754905,77.077900649753,4.1,6:30 PM
Sumit plumber,9891111715,https://lh5.googleusercontent.com/p/AF1QipMnmcL2IVvO4UU95iWayp_4emumelB4k9X9GpId=w114-h114-n-k-no,"https://maps.google.com/maps?um=1&fb=1&gl=in&sa=X&geocode=KRVE4gy5Aw05MSG92HdSrN81&daddr=B-10,+Model+Town+Phase+2,+Block+B,+Model+Town+Phase+I,+Model+Town,+Delhi,+110009&ved=2ahUKEwiA-5OB2rmEAxUK54QAHTFwCAoQ48ADegUIABCGAQ","B-10, Model Town Phase 2, Block B, Model Town Phase I, Model Town, Delhi, 110009",28.699188036886,77.189893734463,5,6:30 PM
Amar Plumber,9871747593,https://lh5.googleusercontent.com/p/AF1QipOY7DFt8gliJriiAsujWjrZSjkoLYl0UYOiVNkw=w114-h114-n-k-no,"https://maps.google.com/maps?um=1&fb=1&gl=in&sa=X&geocode=KVNZjcXaAw05Mcf3ozJ_LZJE&daddr=shiv+market,+Ashok+Vihar+III,+Ashok+Vihar,+Delhi,+110052&ved=2ahUKEwiA-5OB2rmEAxUK54QAHTFwCAoQ48ADegUIABCQAQ","shiv market, Ashok Vihar III, Ashok Vihar, Delhi, 110052",28.69177,77.17799,4.9,6:30 PM
Das Sons Plumbing,8010333030,https://lh5.googleusercontent.com/p/AF1QipMq8_t_OZz3b5vurGrguM6mF7iWHofCXzE2XSGy=w114-h114-n-k-no,"https://maps.google.com/maps?um=1&fb=1&gl=in&sa=X&geocode=KZVTQD7gBQ05MZyGr39RBQcJ&daddr=Near+Janakpuri+East+Metro,+Old+Mahavir+Nagar,+Krishna+Park,+Tilak+Nagar,+Delhi,+110018&ved=2ahUKEwiA-5OB2rmEAxUK54QAHTFwCAoQ48ADegUIABCaAQ","Near Janakpuri East Metro, Old Mahavir Nagar, Krishna Park, Tilak Nagar, Delhi, 110018",28.636541236336,77.084110047248,5,09:00 PM
RK home üè° maintenance services,7667282499,https://lh5.googleusercontent.com/p/AF1QipP4Em_1EPsduHGO1Dx4PY3sjw_FRFbK1e9dJk0E=w114-h114-n-k-no,"https://maps.google.com/maps?um=1&fb=1&gl=in&sa=X&geocode=KXV9_DCZAQ05MZi7dCfTqgib&daddr=DDA+mkt,+Patel+ngr,+Sector+6+Rd,+Rohini,+Delhi,+110085&ved=2ahUKEwiA-5OB2rmEAxUK54QAHTFwCAoQ48ADegUIABClAQ","DDA mkt, Patel ngr, Sector 6 Rd, Rohini, Delhi, 110085",28.71361275736,77.112421987889,5,07:00 PM
Sanjeev Plumbing Solutions Bawana,9953675764,https://lh5.googleusercontent.com/p/AF1QipOdjtQ0fO8uf8eVDwlZoMHtAVqVqZzsjBQjKzQi=w114-h114-n-k-no,"https://maps.google.com/maps?um=1&fb=1&gl=in&sa=X&geocode=Kf8CMiAiqA05MQyA09mSwIMU&daddr=Ishwar+Colony,+Bawana,+Delhi,+110039&ved=2ahUKEwiA-5OB2rmEAxUK54QAHTFwCAoQ48ADegUIABCvAQ","Ishwar Colony, Bawana, Delhi, 110039",28.797275578549,77.033178247875,4.7,6:30 PM
Prem plumber,9899209133,https://lh5.googleusercontent.com/p/AF1QipOXuC8OuiEB9oC-63ULZZOkPgwVXRyxf7gWrjV4=w114-h114-n-k-no,"https://maps.google.com/maps?um=1&fb=1&gl=in&sa=X&geocode=KWPd0xmQ4ww5MWe4Mn34opXJ&daddr=Deer+park,+Arjun+Nagar,+New+Delhi,+Delhi+110029&ved=2ahUKEwiA-5OB2rmEAxUK54QAHTFwCAoQ48ADegUIABC3AQ","Deer park, Arjun Nagar, New Delhi, Delhi 110029",28.561626141565,77.19889776906,4.7,6:30 PM
Near by plumber Ashok vihar shiv market,9354837551,https://lh5.googleusercontent.com/p/AF1QipPK2gt8BOPfKKHv0XWYtWE1I5elHJfOgXAP1a3E=w114-h114-n-k-no,"https://maps.google.com/maps?um=1&fb=1&gl=in&sa=X&geocode=KUHdpM9oAw05MfIjjlaMNvXb&daddr=513,+Ashok+Vihar+III,+Ashok+Vihar,+Delhi,+110052&ved=2ahUKEwiA-5OB2rmEAxUK54QAHTFwCAoQ48ADegUIABDCAQ","513, Ashok Vihar III, Ashok Vihar, Delhi, 110052",28.68493667499,77.183963471792,4.6,6:30 PM
Om Prakash Plumber,9811022754,https://streetviewpixels-pa.googleapis.com/v1/thumbnail?panoid=k5_hSkYY1Tmhx3rgtLtbQA&cb_client=geo_services_immersive.gps&w=144&h=144&yaw=289.26187&pitch=0&thumbfov=100,"https://maps.google.com/maps?um=1&fb=1&gl=in&sa=X&geocode=KanNDYiGBA05MWuhUahY-FIX&daddr=3rd-B/103+Vishnu+Garden+Near+Bhatta+sahib+gurudwara,+New+Delhi,+Delhi+110018&ved=2ahUKEwiA-5OB2rmEAxUK54QAHTFwCAoQ48ADegUIABDKAQ","3rd-B/103 Vishnu Garden Near Bhatta sahib gurudwara, New Delhi, Delhi 110018",28.646310008432,77.184560008899,3.5,6:30 PM
Kailash plumbing and senetary works,8527319876,https://lh5.googleusercontent.com/p/AF1QipN9Mp5rfwaeec5C_FiOLzmK1StMQWVLbvXzZfGp=w114-h114-n-k-no,"https://maps.google.com/maps?um=1&fb=1&gl=in&sa=X&geocode=KSGqj9Z34ww5MZ85u5xI0nus&daddr=Shop+no+10,+Block+H,+Chittaranjan+Park,+New+Delhi,+Delhi+110019&ved=2ahUKEwixjJeW2rmEAxUI5IQAHf05A9gQ48ADegQIABAq","Shop no 10, Block H, Chittaranjan Park, New Delhi, Delhi 110019",28.535964398636,77.251501441629,5,07:00 PM
Om Prakash Plumber,9899209133,https://streetviewpixels-pa.googleapis.com/v1/thumbnail?panoid=k5_hSkYY1Tmhx3rgtLtbQA&cb_client=geo_services_immersive.gps&w=144&h=144&yaw=289.26187&pitch=0&thumbfov=100,"https://maps.google.com/maps?um=1&fb=1&gl=in&sa=X&geocode=KanNDYiGBA05MWuhUahY-FIX&daddr=3rd-B/103+Vishnu+Garden+Near+Bhatta+sahib+gurudwara,+New+Delhi,+Delhi+110018&ved=2ahUKEwixjJeW2rmEAxUI5IQAHf05A9gQ48ADegQIABAy","3rd-B/103 Vishnu Garden Near Bhatta sahib gurudwara, New Delhi, Delhi 110018",28.646310008432,77.184560008899,3.5,6:30 PM
"Kishan plumber service (PVC , CPVC AND GI)",7379928009,https://lh5.googleusercontent.com/p/AF1QipMYu14YFVBigXMQ1UAM3sPMXUSgwirnraIEMCeU=w114-h114-n-k-no,"https://maps.google.com/maps?um=1&fb=1&gl=in&sa=X&geocode=KYMDbNDbAQ05MRqFFS3NQEZ0&daddr=Street+number+2,+10042,+Kushak+Rd,+Block+C,+Swaroop+Nagar,+Bhalswa,+Delhi,+New+Delhi,+Delhi+110042&ved=2ahUKEwixjJeW2rmEAxUI5IQAHf05A9gQ48ADegQIABA5","Street number 2, 10042, Kushak Rd, Block C, Swaroop Nagar, Bhalswa, Delhi, New Delhi, Delhi 110042",28.757520357103,77.153272210761,5,06:00 PM
RAM PLUMBER,9811572214,https://lh5.googleusercontent.com/p/AF1QipO5WuDnIIGwpUFFv1Zyvskixi7LWvyu7stnDesV=w114-h114-n-k-no,"https://maps.google.com/maps?um=1&fb=1&gl=in&sa=X&geocode=KS8OaaMGAw05MeVOwedk0VQM&daddr=BABA+CORNER,+B.10,+Model+Town+Phase+2,+Block+B,+Model+Town+Phase+I,+Model+Town,+Delhi,+110009&ved=2ahUKEwixjJeW2rmEAxUI5IQAHf05A9gQ48ADegQIABBC","BABA CORNER, B.10, Model Town Phase 2, Block B, Model Town Phase I, Model Town, Delhi, 110009",28.699188036886,77.189893734463,5,6:30 PM
Surendra Interior & Plumbing Works,9871789894,https://lh5.googleusercontent.com/p/AF1QipPSk-GTIWT_XWO5MyF6yU5MRd-kDRXIVPtQ6d2Q=w114-h114-n-k-no,"https://maps.google.com/maps?um=1&fb=1&gl=in&sa=X&geocode=KS8bJUcFHw05Mes8k4f_SFnj&daddr=D15/298,+Pahari+Rd,+Chhatarpur+Hills,+Dr+Ambedkar+Colony,+Chhatarpur,+New+Delhi,+Delhi+110074&ved=2ahUKEwixjJeW2rmEAxUI5IQAHf05A9gQ48ADegQIABBL","D15/298, Pahari Rd, Chhatarpur Hills, Dr Ambedkar Colony, Chhatarpur, New Delhi, Delhi 110074",28.506036470699,77.177475203475,4.6,6:30 PM
Amit kothari engineer works (plumber and electrician ),9205227179,https://lh5.googleusercontent.com/p/AF1QipMq3jvPBoIccDjSP0x15EXWwnmIE9wZ1dLbWrbR=w114-h114-n-k-no,"https://maps.google.com/maps?um=1&fb=1&gl=in&sa=X&geocode=KeOh-ybJDw05MbbXveBK8Dws&daddr=Rz+b+56,+Gali+No+-2,+Jai+Vihar,+Nangli+Sakrawati,+New+Delhi,+Delhi,+110043&ved=2ahUKEwixjJeW2rmEAxUI5IQAHf05A9gQ48ADegQIABBV","Rz b 56, Gali No -2, Jai Vihar, Nangli Sakrawati, New Delhi, Delhi, 110043",28.623380013101,77.309220031513,4.9,6:30 PM
Plumbing and electrical services in noida and Delhi(best plumber near you) Ô∏è,9555296200,https://lh5.googleusercontent.com/p/AF1QipNxGT_jKsJ4k1LwdBoA2YEXCbo_veD_eCrHClku=w114-h114-n-k-no,"https://maps.google.com/maps?um=1&fb=1&gl=in&sa=X&geocode=KY_W7ytS5Qw5MXoCLikFRQOe&daddr=B-178,+ncr,+B+Block,+Pocket+B,+Sector+20,+Noida,+Uttar+Pradesh+201301&ved=2ahUKEwixjJeW2rmEAxUI5IQAHf05A9gQ48ADegQIABBg","B-178, ncr, B Block, Pocket B, Sector 20, Noida, Uttar Pradesh 201301",28.582543227723,77.330084623355,4.5,08:00 PM
Plumber service,7678633415,https://lh5.googleusercontent.com/p/AF1QipNuEUVsaeZ7LfTfXTeAkS6b3xZsffuivOwKl1Ow=w114-h114-n-k-no,"https://maps.google.com/maps?um=1&fb=1&gl=in&sa=X&geocode=KV2XUZP5BQ05Mff217pH8QXt&daddr=B-126,+Block+C,+Kiran+Garden,+Uttam+Nagar,+New+Delhi,+Delhi,+110059&ved=2ahUKEwixjJeW2rmEAxUI5IQAHf05A9gQ48ADegQIABBm","B-126, Block C, Kiran Garden, Uttam Nagar, New Delhi, Delhi, 110059",28.61967,77.0491,4.5,6:30 PM
plumbing work santosh kumar,9798459607,https://lh5.googleusercontent.com/p/AF1QipOWasfq0D6zrwXoi_p7aHXmFbdR4IXsuHwCHYJd=w114-h114-n-k-no,"https://maps.google.com/maps?um=1&fb=1&gl=in&sa=X&geocode=KU1-4d8J_gw5MfszNdaZit7S&daddr=H+NO-158,+Munshi+Ram+Colony,+Nirankari+Colony,+Mukherjee+Nagar,+Delhi,+110009&ved=2ahUKEwixjJeW2rmEAxUI5IQAHf05A9gQ48ADegQIABBt","H NO-158, Munshi Ram Colony, Nirankari Colony, Mukherjee Nagar, Delhi, 110009",28.712704719719,77.209234839217,3.5,6:30 PM
Plumber Shivpal and Contactors,8750707387,https://lh5.googleusercontent.com/p/AF1QipMmsaQwn-0m5Ox0FjyoxAbAiIaBKUOAod6Mvt9O=w114-h114-n-k-no,"https://maps.google.com/maps?um=1&fb=1&gl=in&sa=X&geocode=KdPQ6MKy_Qw5MVhlbFMJEzqT&daddr=road,+Street+Number+2,+near+jai+public+schools,+Nehru+Vihar,+Chandu+Nagar,+Karawal+Nagar,+Delhi,+110094&ved=2ahUKEwixjJeW2rmEAxUI5IQAHf05A9gQ48ADegUIABCAAQ","road, Street Number 2, near jai public schools, Nehru Vihar, Chandu Nagar, Karawal Nagar, Delhi, 110094",28.760240000561,77.265534977087,4.9,6:30 PM
Raju yadav best plumber services üë®‚Äçüîß,9555551592,https://lh5.googleusercontent.com/p/AF1QipNL_9_QshsbAal8jBgilloSPzq2OgCV_xf3FhNe=w114-h114-n-k-no,"https://maps.google.com/maps?um=1&fb=1&gl=in&sa=X&geocode=Kec9lwALBQ05MQOB4d8B1VVO&daddr=F-4/345,+Sultanpuri,+Delhi,+110086&ved=2ahUKEwixjJeW2rmEAxUI5IQAHf05A9gQ48ADegUIABCJAQ","F-4/345, Sultanpuri, Delhi, 110086",28.695930660255,77.072371064876,5,10:00 PM
Modern technology plumber,9350310282,https://lh5.googleusercontent.com/p/AF1QipOFkaqAq7BvA2CVyZ2mMaNuDYI19OCxbTPqbo-R=w114-h114-n-k-no,"https://maps.google.com/maps?um=1&fb=1&gl=in&sa=X&geocode=KUX-iKXGHQ05MY7wo2YI2PSi&daddr=Humaypur+Arjun+Nagar+green+park,+Safdarjung+Enclave,+New+Delhi,+Delhi+110029&ved=2ahUKEwixjJeW2rmEAxUI5IQAHf05A9gQ48ADegUIABCSAQ","Humaypur Arjun Nagar green park, Safdarjung Enclave, New Delhi, Delhi 110029",28.561626141565,77.19889776906,5,6:30 PM
Plumber Mintu,9873236987,https://lh5.googleusercontent.com/p/AF1QipPq_YkYJtz4GJkJ-G93Vkm4wn0jCLT3mTleCuSi=w114-h114-n-k-no,"https://maps.google.com/maps?um=1&fb=1&gl=in&sa=X&geocode=KVuSD6vXBA05MYzQLca1eIeD&daddr=RZ-31,+Rajapuri+Rd,+Manas+Kunj,+Santosh+Park,+Uttam+Nagar,+Delhi,+110059&ved=2ahUKEwixjJeW2rmEAxUI5IQAHf05A9gQ48ADegUIABCaAQ","RZ-31, Rajapuri Rd, Manas Kunj, Santosh Park, Uttam Nagar, Delhi, 110059",28.617391452098,77.06480997954,5,09:00 PM
KEDARNATH PLUMBER,9711867636,https://lh5.googleusercontent.com/p/AF1QipOyvYaHNbjE2Ah46vKEKibO8GnfXgiOz-eZK2NX=w114-h114-n-k-no,"https://maps.google.com/maps?um=1&fb=1&gl=in&sa=X&geocode=KSmCxkEW4gw5MfwPKkI0Z1nP&daddr=268,+Shahpur+Jat,+Siri+Fort,+New+Delhi,+Delhi+110049&ved=2ahUKEwixjJeW2rmEAxUI5IQAHf05A9gQ48ADegUIABCiAQ","268, Shahpur Jat, Siri Fort, New Delhi, Delhi 110049",28.548402122402,77.21421256706,4,6:30 PM
"Ajay, Laxmi Nagar Nearby Plumber",8178322527,https://lh5.googleusercontent.com/p/AF1QipNurnRhFKQ3Wai7optNZmhSE7-z5w633ct2oMx4=w114-h114-n-k-no,"https://maps.google.com/maps?um=1&fb=1&gl=in&sa=X&geocode=KUtjJEbn_Qw5MW2LtNn6j7M0&daddr=Musafir+Ram,+Wegmans+House,+21,+Veer+Savarkar+Block,+Dayanand+Colony,+Shakarpur,+Delhi,+110092&ved=2ahUKEwillaSn2rmEAxV41YQAHSgLN6sQ48ADegQIABAs","Musafir Ram, Wegmans House, 21, Veer Savarkar Block, Dayanand Colony, Shakarpur, Delhi, 110092",28.631916456645,77.280748415084,4.8,6:30 PM
N.K Sanitary & Electricals Works(‡§™‡•ç‡§∞‡•á‡§Æ ‡§∏‡§ø‡§Ç‡§π ‡§™‡•ç‡§∞‡§ú‡§æ‡§™‡§§‡§ø),9711867636,https://lh5.googleusercontent.com/p/AF1QipMcWYsrNDQGologDhyjm4gu7k4vXN6-JBwF1mds=w114-h114-n-k-no,"https://maps.google.com/maps?um=1&fb=1&gl=in&sa=X&geocode=KT02eyohGw05MWOB0G4i-heD&daddr=Solanki+mohalla+Shahabad+mohammadpur,+New+Delhi,+Delhi+110061&ved=2ahUKEwillaSn2rmEAxV41YQAHSgLN6sQ48ADegQIABA2","Solanki mohalla Shahabad mohammadpur, New Delhi, Delhi 110061",28.536643345736,77.059720224564,4.8,6:30 PM
Plumber sarvice,7053047209,https://lh5.googleusercontent.com/p/AF1QipPVXpWwz28q985V95ZEYcnJSGajTVO0aQx56eP5=w114-h114-n-k-no,"https://maps.google.com/maps?um=1&fb=1&gl=in&sa=X&geocode=KY9VuCFZAw05MfG6qM1-ThqL&daddr=Ashok+Vihar+II,+Wazirpur,+ashok+vihar,+Ashok+Vihar,+Delhi,+110052&ved=2ahUKEwillaSn2rmEAxV41YQAHSgLN6sQ48ADegQIABBA","Ashok Vihar II, Wazirpur, ashok vihar, Ashok Vihar, Delhi, 110052",28.695966913951,77.171713196628,4.8,6:30 PM
Rajesh Kumar plumber work,9289383574,https://lh5.googleusercontent.com/p/AF1QipOmSXcb4RHejOoIxgh-WFNPlNxzEy-kzp2xgDhU=w114-h114-n-k-no,"https://maps.google.com/maps?um=1&fb=1&gl=in&sa=X&geocode=KZn3zzE-_ww5MbhLTGiifMkz&daddr=B,+11,+Indira+Vikas+Colony,+Brahmakumaris+Indira+Vikas+Colony,+Bhai+Parmanand+Colony,+Mukherjee+Nagar,+Delhi,+110009&ved=2ahUKEwillaSn2rmEAxV41YQAHSgLN6sQ48ADegQIABBK","B, 11, Indira Vikas Colony, Brahmakumaris Indira Vikas Colony, Bhai Parmanand Colony, Mukherjee Nagar, Delhi, 110009",28.710189362801,77.208033810851,4.1,6:30 PM
Sehra ji plumbing service's,9810772530,https://lh5.googleusercontent.com/p/AF1QipMy38kHpGBWNccYHWUmepzyKGaXub1J34Tg7aPC=w114-h114-n-k-no,"https://maps.google.com/maps?um=1&fb=1&gl=in&sa=X&geocode=KcEU9anRBQ05MSTrYjXUm7Fj&daddr=Street+7,+Dwarka+Mor,+Block+H,+Laxmi+Vihar,+Nawada,+New+Delhi,+Delhi,+110059&ved=2ahUKEwillaSn2rmEAxV41YQAHSgLN6sQ48ADegQIABBR","Street 7, Dwarka Mor, Block H, Laxmi Vihar, Nawada, New Delhi, Delhi, 110059",28.623437412379,77.051960075446,5,6:30 PM
Pulamber& electronic,9871940144,https://lh5.googleusercontent.com/p/AF1QipNBpnRESWsPgGLrlGPl9ELqueXMqLr7e2vWtxuq=w114-h114-n-k-no,"https://maps.google.com/maps?um=1&fb=1&gl=in&sa=X&geocode=KRs2cHpGDw05MQWZkAE8rXCv&daddr=24,+Gali+Number+1,+Gupta+Market,+Haibutpura+Extn,+Najafgarh,+Delhi,+110043&ved=2ahUKEwillaSn2rmEAxV41YQAHSgLN6sQ48ADegQIABBc","24, Gali Number 1, Gupta Market, Haibutpura Extn, Najafgarh, Delhi, 110043",28.598911453818,77.006022922228,4.9,6:30 PM
Rajesh Plumber,9891615074,https://lh5.googleusercontent.com/p/AF1QipNQmMWqk_nJBv7xhEWpg0qJez6EOo6XukjMxGdU=w114-h114-n-k-no,"https://maps.google.com/maps?um=1&fb=1&gl=in&sa=X&geocode=KR9AOl7nAQ05MXZ_Ia7K1O8i&daddr=F,+6,/4,+Pocket+5,+Sector+16,+Rohini,+Delhi,+110089&ved=2ahUKEwillaSn2rmEAxV41YQAHSgLN6sQ48ADegQIABBl","F, 6,/4, Pocket 5, Sector 16, Rohini, Delhi, 110089",28.733695575866,77.125757378996,3.7,06:00 PM
Rupesh plumber,9868221491,https://lh5.googleusercontent.com/p/AF1QipM1dJ_EkP6kzXSAggFQqIWWrHdKHp6WyvLiuPDE=w114-h114-n-k-no,"https://maps.google.com/maps?um=1&fb=1&gl=in&sa=X&geocode=KRnqzow1qQ05MTP_RPnJ3bsX&daddr=Delhi+Narela,+and,+Bawana,+Delhi,+110040&ved=2ahUKEwillaSn2rmEAxV41YQAHSgLN6sQ48ADegQIABBt","Delhi Narela, and, Bawana, Delhi, 110040",28.809689981309,77.107199987912,5,6:30 PM
"Amit Plumbing Contractor in Rohini, New Delhi",1141001188,https://lh5.googleusercontent.com/p/AF1QipNwpIDQEc3GiePoJWk42C24a7cJxkctrOJNpGCv=w114-h114-n-k-no,"https://maps.google.com/maps?um=1&fb=1&gl=in&sa=X&geocode=KSWD3-BFAQ05MTZM12d36DUl&daddr=H.No-+175,+Naharpur+Village+Rd,+Sector+7,+Rohini,+New+Delhi,+Delhi+110085&ved=2ahUKEwillaSn2rmEAxV41YQAHSgLN6sQ48ADegQIABB0","H.No- 175, Naharpur Village Rd, Sector 7, Rohini, New Delhi, Delhi 110085",28.707686199229,77.121377813291,2.9,6:30 PM
Ranbir Singh Plumber,9818781691,https://streetviewpixels-pa.googleapis.com/v1/thumbnail?panoid=JHxWToAw11xR7Imvx0of5g&cb_client=geo_services_immersive.gps&w=144&h=144&yaw=53.355682&pitch=0&thumbfov=100,"https://maps.google.com/maps?um=1&fb=1&gl=in&sa=X&geocode=KYPt1BaZAg05MUU_yWV8_pJC&daddr=168,Guru+Nanak+Market,+WEA,+Karol+Bagh,+New+Delhi,+Delhi+110005&ved=2ahUKEwillaSn2rmEAxV41YQAHSgLN6sQ48ADegQIABB7","168,Guru Nanak Market, WEA, Karol Bagh, New Delhi, Delhi 110005",28.647866335876,77.187030543946,3.7,10:00 PM
Suraj Prakash Luthra | Delhi Jal Board Licensed Plumber | Govt. of N.C.T. of Delhi,9818961538,https://lh5.googleusercontent.com/p/AF1QipOhe2WiqLM_zloCwLeHktU1ka97xqgpRjGYUo3P=w114-h114-n-k-no,"https://maps.google.com/maps?um=1&fb=1&gl=in&sa=X&geocode=KfMHAYmo_Qw5MSr5AhBjktyW&daddr=F-4,+Bhagat+Singh+Rd,+New+Govindpura,+Krishna+Nagar,+Delhi,+110051&ved=2ahUKEwillaSn2rmEAxV41YQAHSgLN6sQ48ADegUIABCCAQ","F-4, Bhagat Singh Rd, New Govindpura, Krishna Nagar, Delhi, 110051",28.655580016158,77.282189986334,2.3,6:30 PM
CareMS India,9718497399,https://lh5.googleusercontent.com/p/AF1QipN5nsapuDzm96b2egmzIFevGkrsNUiAMvZYQ6eK=w114-h114-n-k-no,"https://maps.google.com/maps?um=1&fb=1&gl=in&sa=X&geocode=KavKJ5wBHg05MZgneqF9mHwQ&daddr=F-321,+2nd+Floor,+Opp.+Shiv+Mandir,+near+PNB+Bank,+Lado+Sarai,+New+Delhi,+Delhi+110030&ved=2ahUKEwillaSn2rmEAxV41YQAHSgLN6sQ48ADegUIABCNAQ","F-321, 2nd Floor, Opp. Shiv Mandir, near PNB Bank, Lado Sarai, New Delhi, Delhi 110030",28.52449,77.19494,4.8,06:00 PM
All Plumbing Repair and Service - Manoj Plumber,9315997412,https://lh5.googleusercontent.com/p/AF1QipNHp__LVvFrqT_8-YwceNT3ycrjYO3qHHmJTAno=w114-h114-n-k-no,"https://maps.google.com/maps?um=1&fb=1&gl=in&sa=X&geocode=KZmhBNzoBA05Ma_JAB-eO0K0&daddr=Bodella+Market,+Budella,+Vikaspuri,+New+Delhi,+Delhi,+110018&ved=2ahUKEwillaSn2rmEAxV41YQAHSgLN6sQ48ADegUIABCXAQ","Bodella Market, Budella, Vikaspuri, New Delhi, Delhi, 110018",28.63601,77.07057,3.5,6:30 PM
Pinki Plumber,9213230377,https://lh5.googleusercontent.com/p/AF1QipPs-K0-JZyvFbGt9pNC-TduxlmjXIzaOpMQPtAq=w114-h114-n-k-no,"https://maps.google.com/maps?um=1&fb=1&gl=in&sa=X&geocode=KesHeuNq_Aw5Mf0IAYnvv9Ty&daddr=M7V8%2BWc3,+Ghonda+Rd,+Gangotri+Vihar,+Block+K,+West+Ghonda,+Shahdara,+New+Delhi,+Delhi,+110053&ved=2ahUKEwillaSn2rmEAxV41YQAHSgLN6sQ48ADegUIABCeAQ","M7V8+Wc3, Ghonda Rd, Gangotri Vihar, Block K, West Ghonda, Shahdara, New Delhi, Delhi, 110053",28.674095668839,77.265030071109,4.7,08:00 PM
CHATARPAL Plumbing Services,9654983397,https://lh5.googleusercontent.com/p/AF1QipNQP9Z_ulk6xbEJJzH11LVhIzoWygOZw7hEGIL1=w114-h114-n-k-no,"https://maps.google.com/maps?um=1&fb=1&gl=in&sa=X&geocode=KXeYF3z_Gw05MSz-o9AXOkHh&daddr=Mahavir+Vihar,+Sector+1+Dwarka,+Dwarka,+New+Delhi,+Delhi,+110045&ved=2ahUKEwillaSn2rmEAxV41YQAHSgLN6sQ48ADegUIABCnAQ","Mahavir Vihar, Sector 1 Dwarka, Dwarka, New Delhi, Delhi, 110045",28.598702567016,77.07423155767,2.7,06:00 PM
Jena Plumbing Systems PVT LTD,9582341195,https://lh5.googleusercontent.com/p/AF1QipOS6K4EJ0dJ-_Kvhi0iMQlv1WICO1fy9cNrnDIo=w114-h114-n-k-no,"https://maps.google.com/maps?um=1&fb=1&gl=in&sa=X&geocode=KTWT3HNFGw05MQS45jJHbNCu&daddr=D-120,+1st+Floor,+Pocket+16,+Solanki+Market,+Dwarka+Sector-3,+Madhu+Vihar,+New+Delhi,+Delhi,+110075&ved=2ahUKEwillaSn2rmEAxV41YQAHSgLN6sQ48ADegUIABCxAQ","D-120, 1st Floor, Pocket 16, Solanki Market, Dwarka Sector-3, Madhu Vihar, New Delhi, Delhi, 110075",28.60096681884,77.062228824091,3.7,08:00 PM
Kaka plumber,7380734931,https://lh5.googleusercontent.com/p/AF1QipPi3Ekupk7zYyadtz8eJhzp9gyCwhR7X6p8FeIl=w114-h114-n-k-no,"https://maps.google.com/maps?um=1&fb=1&gl=in&sa=X&geocode=KTtBTjdq_Qw5MfCqqKGfeRBE&daddr=Indra+Vihar,+Mukherjee+Nagar,+New+Delhi,+Delhi,+110009&ved=2ahUKEwillaSn2rmEAxV41YQAHSgLN6sQ48ADegUIABC4AQ","Indra Vihar, Mukherjee Nagar, New Delhi, Delhi, 110009",28.705199153266,77.213716013067,5,6:30 PM
"Hari Plumber in Chattarpur and Saket, Delhi",7042070493,https://streetviewpixels-pa.googleapis.com/v1/thumbnail?panoid=Ru9rhaYDMdOKSjrSL5tCfQ&cb_client=geo_services_immersive.gps&w=144&h=144&yaw=333.17413&pitch=0&thumbfov=100,"https://maps.google.com/maps?um=1&fb=1&gl=in&sa=X&geocode=KVVVsYB0Hg05McIRkaiE5XoV&daddr=56/9,+Kishangarh+Village,+Vasant+Kunj,+New+Delhi,+Delhi+110070&ved=2ahUKEwi2oK-_2rmEAxXV54QAHSkmA6AQ48ADegQIABAs","56/9, Kishangarh Village, Vasant Kunj, New Delhi, Delhi 110070",28.519522457562,77.165978817773,5,07:00 PM
Wasif plumber,9999367413,https://lh5.googleusercontent.com/p/AF1QipPkxSSsNkHUwS1K48D7FDQPlrPSsY8bWLpmBBll=w114-h114-n-k-no,"https://maps.google.com/maps?um=1&fb=1&gl=in&sa=X&geocode=KfNXLg36_Qw5MahgOZOxu7ig&daddr=House+no.B/146+Street+no.8,+Mazar+ke+pass,+Chand+Bagh,+Delhi+110094&ved=2ahUKEwi2oK-_2rmEAxXV54QAHSkmA6AQ48ADegQIABA0","House no.B/146 Street no.8, Mazar ke pass, Chand Bagh, Delhi 110094",28.705088296933,77.267649388932,5,6:30 PM
Plumber Kapil Sharma,9650614195,https://streetviewpixels-pa.googleapis.com/v1/thumbnail?panoid=aLrUKRHmqzWEDTLLQKHE5A&cb_client=geo_services_immersive.gps&w=144&h=144&yaw=5.5729904&pitch=0&thumbfov=100,"https://maps.google.com/maps?um=1&fb=1&gl=in&sa=X&geocode=KfHrQ8lwAQ05MXV7aLFr6xAN&daddr=Block+NU,+8+A,+Pitampura,+New+Delhi,+Delhi,+110034&ved=2ahUKEwi2oK-_2rmEAxXV54QAHSkmA6AQ48ADegQIABA7","Block NU, 8 A, Pitampura, New Delhi, Delhi, 110034",28.686625188364,77.143302248978,5,05:00 PM
SAH SANITATION & CONTRACTORS,9968008217,https://lh5.googleusercontent.com/p/AF1QipNBNRdEcLTnHgyA-YMUHdGdzpA9IG8tWl6SzDYd=w114-h114-n-k-no,"https://maps.google.com/maps?um=1&fb=1&gl=in&sa=X&geocode=Ka-AkSwyGw05MdBG8rB0L-xP&daddr=S.No.+C-137,+near+Power+House+36,+Mahavir+Enclave+Part+2,+Mahavir+Enclave+Part+3,+Dwarka,+New+Delhi,+Delhi,+110059&ved=2ahUKEwi2oK-_2rmEAxXV54QAHSkmA6AQ48ADegQIABBG","S.No. C-137, near Power House 36, Mahavir Enclave Part 2, Mahavir Enclave Part 3, Dwarka, New Delhi, Delhi, 110059",28.558732527491,77.054588683583,4,6:30 PM
MS Plumber works,9971685311,https://streetviewpixels-pa.googleapis.com/v1/thumbnail?panoid=Vods2nfBygEasBUi0FNYqg&cb_client=geo_services_immersive.gps&w=144&h=144&yaw=257.98587&pitch=0&thumbfov=100,"https://maps.google.com/maps?um=1&fb=1&gl=in&sa=X&geocode=KRWSlTMAAw05MZEh2T-Hr4t8&daddr=2579,+Street+Number+21A,+Block+B,+Baljit+Nagar,+Patel+Nagar,+New+Delhi,+Delhi,+110008&ved=2ahUKEwi2oK-_2rmEAxXV54QAHSkmA6AQ48ADegQIABBP","2579, Street Number 21A, Block B, Baljit Nagar, Patel Nagar, New Delhi, Delhi, 110008",28.655711774074,77.159322328062,4.7,6:30 PM
Plumber,9560871852,https://lh5.googleusercontent.com/p/AF1QipO228dR37JlBYn-VFiNtFWSwB27UjwTMBf4tTeC=w114-h114-n-k-no,"https://maps.google.com/maps?um=1&fb=1&gl=in&sa=X&geocode=KYmK0s0d4gw5MSkCEOdfRXEF&daddr=10+%26+11,+Corner+Market,+Sadhna+Enclave,+Malviya+Nagar,+New+Delhi,+Delhi+110017&ved=2ahUKEwi2oK-_2rmEAxXV54QAHSkmA6AQ48ADegQIABBX","10 & 11, Corner Market, Sadhna Enclave, Malviya Nagar, New Delhi, Delhi 110017",28.540312706296,77.215154154768,4,6:30 PM
Ali plumbing Solutions,8700334745,https://lh5.googleusercontent.com/p/AF1QipNj673YBS0Q_InEDZIsY9vNdCcVcZmK-Gs-j8_N=w114-h114-n-k-no,"https://maps.google.com/maps?um=1&fb=1&gl=in&sa=X&geocode=Kd1Ccv3lAw05MQes4cAlW6Th&daddr=House+No.+1088,+Street+No.+73,+Deva+Ram+Park,+Lekhu+Nagar,+Tri+Nagar,+Delhi,+110038&ved=2ahUKEwi2oK-_2rmEAxXV54QAHSkmA6AQ48ADegQIABBe","House No. 1088, Street No. 73, Deva Ram Park, Lekhu Nagar, Tri Nagar, Delhi, 110038",28.67428,77.16226,3,08:00 PM
Ayefha plumber Contractor,9911039475,https://lh5.googleusercontent.com/p/AF1QipPdIldf3vsv_5Xe2yLmDMRyZ98O4AftHiHFjhm7=w114-h114-n-k-no,"https://maps.google.com/maps?um=1&fb=1&gl=in&sa=X&geocode=KQP0OZdTBQ05MdYpQI7GTiof&daddr=340,+Galli+Number+6,+Karan+Vihar+Phase+I,+Kirari+Suleman+Nagar+Village,+North+West,+Delhi,+110086&ved=2ahUKEwi2oK-_2rmEAxXV54QAHSkmA6AQ48ADegQIABBo","340, Galli Number 6, Karan Vihar Phase I, Kirari Suleman Nagar Village, North West, Delhi, 110086",28.702960002098,77.07483498709,5,6:30 PM
"Mahi ODS: Plumbers, Electricians, Painters in Rajouri Garden",7788055666,https://lh5.googleusercontent.com/p/AF1QipNQZaJq8N6cyua7EOa7WS5IQ9p5kkQ72N-2IdBo=w114-h114-n-k-no,"https://maps.google.com/maps?um=1&fb=1&gl=in&sa=X&geocode=KWGKsYWWAw05MSz9eEL9sBhC&daddr=160c+DDA+flats+janta+colony,+Shivaji+Enclave,+Rajouri+Garden,+New+Delhi,+Delhi+110027&ved=2ahUKEwi2oK-_2rmEAxXV54QAHSkmA6AQ48ADegQIABBy","160c DDA flats janta colony, Shivaji Enclave, Rajouri Garden, New Delhi, Delhi 110027",28.638637103717,77.116197915586,2.9,6:30 PM
Raiyan plumbing contractor,9818977235,https://streetviewpixels-pa.googleapis.com/v1/thumbnail?panoid=YzVOVrAX9Snb7kv0k92Rnw&cb_client=geo_services_immersive.gps&w=144&h=144&yaw=283.3988&pitch=0&thumbfov=100,"https://maps.google.com/maps?um=1&fb=1&gl=in&sa=X&geocode=KUE7UNMcAQ05MdoySiNM4DxV&daddr=F-80+Vishwanath+Puri,+Bhalswa+Dairy,+Jahangirpura,+near+Noori+masjid,+Bhalswa,+Delhi,+110042&ved=2ahUKEwi2oK-_2rmEAxXV54QAHSkmA6AQ48ADegQIABB5","F-80 Vishwanath Puri, Bhalswa Dairy, Jahangirpura, near Noori masjid, Bhalswa, Delhi, 110042",28.741235000702,77.161089999562,5,6:30 PM
Ansh & contactor plumber,9250674178,https://lh5.googleusercontent.com/p/AF1QipPHzKVYwjCaF603rbgQuC2vEiZpWZkG1H1Ilvpo=w114-h114-n-k-no,"https://maps.google.com/maps?um=1&fb=1&gl=in&sa=X&geocode=KVvyeWx1Aw05MRRQ1wY9hZbx&daddr=F-37,+Karampura+Industrial+Area,+Karam+Pura,+Delhi,+110015&ved=2ahUKEwi2oK-_2rmEAxXV54QAHSkmA6AQ48ADegUIABCAAQ","F-37, Karampura Industrial Area, Karam Pura, Delhi, 110015",28.668614635826,77.16113875833,5,6:30 PM
Vikas plumbing service,6386292750,https://streetviewpixels-pa.googleapis.com/v1/thumbnail?panoid=KG_2RqZJZRLnAMEXjcSkgQ&cb_client=geo_services_immersive.gps&w=144&h=144&yaw=78.4745&pitch=0&thumbfov=100,"https://maps.google.com/maps?um=1&fb=1&gl=in&sa=X&geocode=KdtTcM_MqQ05MSEg838l_ak6&daddr=D-458+pana+dhani+wara+valmiki+gali,+Auchandi+Main+Rd,+Bawana,+Delhi+110039&ved=2ahUKEwi2oK-_2rmEAxXV54QAHSkmA6AQ48ADegUIABCGAQ","D-458 pana dhani wara valmiki gali, Auchandi Main Rd, Bawana, Delhi 110039",28.815413345374,77.040624254648,5,08:00 PM
MistriBabu,9716488124,https://lh5.googleusercontent.com/p/AF1QipPWWzmdlOJ4xbGewjtWfdu-A_dRc6k-KxdP15XB=w114-h114-n-k-no,"https://maps.google.com/maps?um=1&fb=1&gl=in&sa=X&geocode=KdWBvWJ0Hg05MUxyBWkLwb68&daddr=111,+9,+Kishangarh+-+Gaushala+Marg,+Kishangarh,+Lakhi+Nath+Kuti,+Vasant+Kunj,+New+Delhi,+Delhi+110070&ved=2ahUKEwi2oK-_2rmEAxXV54QAHSkmA6AQ48ADegUIABCPAQ","111, 9, Kishangarh - Gaushala Marg, Kishangarh, Lakhi Nath Kuti, Vasant Kunj, New Delhi, Delhi 110070",28.519522457562,77.165978817773,4.7,6:30 PM
