Title,Phone Number,Image URL,Direction Link,Address,Latitude,Longitude,Rating,time
HomeTriangle,7676000100,https://lh5.googleusercontent.com/p/AF1QipPq1SbjVnMFxlfGH88J2CbnCJWF0lEFfeFlpM2o=w114-h114-n-k-no,"https://maps.google.com/maps?um=1&fb=1&gl=in&sa=X&geocode=KZEMu6wWdwI6MUkOgayZA4vK&daddr=21/2g,+Manohar+Pukur+Rd,+Dover+Terrace,+Ballygunge,+Kolkata,+West+Bengal+700029&ved=2ahUKEwiOg4aX37mEAxX054QAHXzUB3kQ48ADegQIABA3","21/2g, Manohar Pukur Rd, Dover Terrace, Ballygunge, Kolkata, West Bengal 700029",22.522320012805,88.347459970204,4.3,6:30 PM
Home Cleaning A - Z Solution,8240122600,https://lh5.googleusercontent.com/p/AF1QipPrvD3Mcy1ue9fBBr2GPpmBx1ACDyMYaxYT206e=w114-h114-n-k-no,"https://maps.google.com/maps?um=1&fb=1&gl=in&sa=X&geocode=KWs2oO4XewI6MQwcqStw_4qb&daddr=207+F,+Thakurpukur+Rd,+near+UCO+Bank,+Thakurpukur+Bazar,+Thakurpukur,+Kolkata,+West+Bengal+700063&ved=2ahUKEwiOg4aX37mEAxX054QAHXzUB3kQ48ADegQIABBB","207 F, Thakurpukur Rd, near UCO Bank, Thakurpukur Bazar, Thakurpukur, Kolkata, West Bengal 700063",22.460290877212,88.302955214695,4.5,6:30 PM
Home Team,9831819424,https://lh5.googleusercontent.com/p/AF1QipNH1U0RNw3bWmQMTtgFEB9AshnyJjoszc6u1ACw=w114-h114-n-k-no,"https://maps.google.com/maps?um=1&fb=1&gl=in&sa=X&geocode=KWUPjyMfdwI6Mb8QhAwAnCmD&daddr=238B,+2nd+floor,+and,+Acharya+Jagdish+Chandra+Bose+Rd,+opposite+foot+of+Haldirams,+opposite+to+Horizon+Building,+Elgin,+Kolkata,+West+Bengal+700020&ved=2ahUKEwiOg4aX37mEAxX054QAHXzUB3kQ48ADegQIABBL","238B, 2nd floor, and, Acharya Jagdish Chandra Bose Rd, opposite foot of Haldirams, opposite to Horizon Building, Elgin, Kolkata, West Bengal 700020",22.541520684819,88.348106980433,4.8,6:30 PM
Apollo HomeCare - Best Home Healthcare Services in Kolkata,18001028586,https://lh5.googleusercontent.com/p/AF1QipPS-d1XvTfw5lBLKX38NtCdavuQsYIhm5PFhl4U=w114-h114-n-k-no,"https://maps.google.com/maps?um=1&fb=1&gl=in&sa=X&geocode=KWUkxqPbewI6MdzbwfBAZ3Mi&daddr=50,+Arabinda+pally,+Kasarir+Math,+Behala,+Kolkata,+West+Bengal+700034&ved=2ahUKEwiOg4aX37mEAxX054QAHXzUB3kQ48ADegQIABBU","50, Arabinda pally, Kasarir Math, Behala, Kolkata, West Bengal 700034",22.496274522824,88.317274464148,4.8,6:30 PM
HOME REPAIRING CENTRE,7003818998,https://lh5.googleusercontent.com/p/AF1QipOQCz9-zLr21cREJxyr-ti_f6FkXXSnb66rlQTn=w114-h114-n-k-no,"https://maps.google.com/maps?um=1&fb=1&gl=in&sa=X&geocode=KWvL9LA-dwI6MUEIG4u1H8Uo&daddr=8,+2,+Palm+Ave,+Ballygunge+Park,+Ballygunge,+Kolkata,+West+Bengal+700019&ved=2ahUKEwiOg4aX37mEAxX054QAHXzUB3kQ48ADegQIABBe","8, 2, Palm Ave, Ballygunge Park, Ballygunge, Kolkata, West Bengal 700019",22.532719984899,88.369760023602,5,09:00 PM
Home Care Solutions & Services,6290565471,https://streetviewpixels-pa.googleapis.com/v1/thumbnail?panoid=RZ1p4VxRywhhFkz1qNqMYA&cb_client=geo_services_immersive.gps&w=144&h=144&yaw=271.50845&pitch=0&thumbfov=100,"https://maps.google.com/maps?um=1&fb=1&gl=in&sa=X&geocode=KZ35FyWFdgI6MWqRU5TGaQvP&daddr=Mallick+Para,+2,+Dhapa+Rd,+near+KMC+Quarters,+Kolkata,+West+Bengal+700105&ved=2ahUKEwiOg4aX37mEAxX054QAHXzUB3kQ48ADegQIABBo","Mallick Para, 2, Dhapa Rd, near KMC Quarters, Kolkata, West Bengal 700105",22.553839992058,88.393920021315,5,6:30 PM
Knowledge Clap - Home Cleaning Services Kolkata,7890728155,https://lh5.googleusercontent.com/p/AF1QipOunDhy5eMtKovXX9Lob9om6rQoy4i46FWrwwD8=w114-h114-n-k-no,"https://maps.google.com/maps?um=1&fb=1&gl=in&sa=X&geocode=KaPK_qsBdwI6MWEvz_QlIPKQ&daddr=3/4+saap+gachi,+Second+Ln,+Picnic+Garden,+Kolkata,+West+Bengal+700039&ved=2ahUKEwiOg4aX37mEAxX054QAHXzUB3kQ48ADegQIABBx","3/4 saap gachi, Second Ln, Picnic Garden, Kolkata, West Bengal 700039",22.527645374784,88.378010457237,4.9,08:00 PM
HomeKrew Professional Service Expert,7003242824,https://lh5.googleusercontent.com/p/AF1QipNgMz3qhczysi1mcIu8trrqrsG1RK39pgjJo6j5=w114-h114-n-k-no,"https://maps.google.com/maps?um=1&fb=1&gl=in&sa=X&geocode=KQWNcZG4dQI6MTdLYMLh_lAL&daddr=Bihari+para,+Paschim+Chowbaga,+Kolkata,+West+Bengal+700105&ved=2ahUKEwiOg4aX37mEAxX054QAHXzUB3kQ48ADegQIABB6","Bihari para, Paschim Chowbaga, Kolkata, West Bengal 700105",22.52658,88.41146,4.5,6:30 PM
Best Deep Home Cleaning,6290712178,https://lh5.googleusercontent.com/p/AF1QipMjsp2ZhjwnE99_NfvAtIVFM_Kag5NEl0Ruaa0u=w114-h114-n-k-no,"https://maps.google.com/maps?um=1&fb=1&gl=in&sa=X&geocode=KYvQXi4keQI6MQ9SGcXNlZ9T&daddr=20B,+Nazir+Ln,+Khidirpur,+Kolkata,+West+Bengal+700023&ved=2ahUKEwiOg4aX37mEAxX054QAHXzUB3kQ48ADegUIABCBAQ","20B, Nazir Ln, Khidirpur, Kolkata, West Bengal 700023",22.542269990101,88.321610013173,4.1,10:00 PM
S.S Home Repair Solutions,9674637916,https://lh5.googleusercontent.com/p/AF1QipNXcYIahzapIZjbtEoI0yAMyeuwvj9IbJWohnOo=w114-h114-n-k-no,"https://maps.google.com/maps?um=1&fb=1&gl=in&sa=X&geocode=KYFuzNE3dwI6MbBQS4oGNTw3&daddr=25-d+harish+mukherjee+road,+25D,+Harish+Mukherjee+Rd,+Bhowanipore,+Kolkata,+West+Bengal+700025&ved=2ahUKEwiOg4aX37mEAxX054QAHXzUB3kQ48ADegUIABCLAQ","25-d harish mukherjee road, 25D, Harish Mukherjee Rd, Bhowanipore, Kolkata, West Bengal 700025",22.53540001462,88.344299992707,4.9,6:30 PM
TriBeCa Care,3366064208,https://lh5.googleusercontent.com/p/AF1QipOuD-lfYwRUppPERTrKuGglBuklSQq36fjECKET=w114-h114-n-k-no,"https://maps.google.com/maps?um=1&fb=1&gl=in&sa=X&geocode=Kd17kGnpcAI6Md9dDnl6yhrn&daddr=1/12+A,+Nehru+Colony,+PO,+Regent+Park,+Kolkata,+West+Bengal+700040&ved=2ahUKEwiOg4aX37mEAxX054QAHXzUB3kQ48ADegUIABCVAQ","1/12 A, Nehru Colony, PO, Regent Park, Kolkata, West Bengal 700040",22.485941543498,88.349296262385,4.8,08:00 PM
House Care Online,7890333300,https://lh5.googleusercontent.com/p/AF1QipNnCOql0vGuLPjs2ECLmRRJf71T1hSrurvYywWi=w114-h114-n-k-no,"https://maps.google.com/maps?um=1&fb=1&gl=in&sa=X&geocode=KQfWRE4YewI6MY3HHBBM2rIq&daddr=79,+Dr+KD+Mukherjee+Rd,+Behala,+Kolkata,+West+Bengal+700060&ved=2ahUKEwiOg4aX37mEAxX054QAHXzUB3kQ48ADegUIABCdAQ","79, Dr KD Mukherjee Rd, Behala, Kolkata, West Bengal 700060",22.506070017119,88.310750000324,4.4,6:30 PM
MAA HEALTH AND HOME CARE Aya Maid Domestic help Baby sitter Man servant Security Guard CAR rent centre,9903219614,https://lh5.googleusercontent.com/p/AF1QipMNynKPKuuX9AipxDdaHHt65H1_SEOH9jxYo6s=w114-h114-n-k-no,"https://maps.google.com/maps?um=1&fb=1&gl=in&sa=X&geocode=KRX5jG_mdwI6May8WcVoy4-J&daddr=6/H/5,+Chamru+Khansama+Ln,+Park+Circus,+Ballygunge,+Kolkata,+West+Bengal+700017&ved=2ahUKEwiOg4aX37mEAxX054QAHXzUB3kQ48ADegUIABCoAQ","6/H/5, Chamru Khansama Ln, Park Circus, Ballygunge, Kolkata, West Bengal 700017",22.535618800213,88.371571054306,4.9,6:30 PM
Hygiene Deep Cleaning Service,9874625758,https://lh5.googleusercontent.com/p/AF1QipNM-plzCXi0qNJGT8d9Qx3X7Pk3M6v5YOoHCsEO=w114-h114-n-k-no,"https://maps.google.com/maps?um=1&fb=1&gl=in&sa=X&geocode=KcuB7nLKdwI6MWv4-10Y19BG&daddr=3rd+floor,+Jiwanram+Sheoduttrai,+30d,+Jawaharlal+Nehru+Rd,+Ballygunge,+Kolkata,+West+Bengal+700016&ved=2ahUKEwiOg4aX37mEAxX054QAHXzUB3kQ48ADegUIABCzAQ","3rd floor, Jiwanram Sheoduttrai, 30d, Jawaharlal Nehru Rd, Ballygunge, Kolkata, West Bengal 700016",22.555499986073,88.350270003243,4.8,6:30 PM
Healthy Homes,18004194647,https://lh5.googleusercontent.com/p/AF1QipP8JVIW1s6RdwrDkjC_-MtP1r-tzk95TR0jvJ_t=w114-h114-n-k-no,"https://maps.google.com/maps?um=1&fb=1&gl=in&sa=X&geocode=KTlcsQ4CcQI6MTDnLdNA5Xu9&daddr=3,+Narayan+Sangha+Club,+Second,+Eastend+Park+Rd,+Kalikapur,+Kasba,+Kolkata,+West+Bengal+700099&ved=2ahUKEwiOg4aX37mEAxX054QAHXzUB3kQ48ADegUIABC8AQ","3, Narayan Sangha Club, Second, Eastend Park Rd, Kalikapur, Kasba, Kolkata, West Bengal 700099",22.501291611927,88.395827211356,4.8,6:30 PM
Home Care Services - Pest Control,9123919133,https://lh5.googleusercontent.com/p/AF1QipOHtHUXCrEiFZk6km1YNPlmGCDvW3mrlJB5Cxrs=w114-h114-n-k-no,"https://maps.google.com/maps?um=1&fb=1&gl=in&sa=X&geocode=KXVM0GAfdwI6MdCkcBGf0nYD&daddr=18-+D,+Fordyce+Ln,+near+Kolley+Market,+Lebutala,+Bowbazar,+Kolkata,+West+Bengal+700014&ved=2ahUKEwiOg4aX37mEAxX054QAHXzUB3kQ48ADegUIABDFAQ","18- D, Fordyce Ln, near Kolley Market, Lebutala, Bowbazar, Kolkata, West Bengal 700014",22.566408197661,88.366945365909,4.9,6:30 PM
Servicure,8697371802,https://lh5.googleusercontent.com/p/AF1QipM8IEpHIClUakBqdN8DF3SaWKmeL9Q3NZdX60_E=w114-h114-n-k-no,"https://maps.google.com/maps?um=1&fb=1&gl=in&sa=X&geocode=KRM36y1ldwI6McoihqZWSgh_&daddr=2nd+Floor,+1A+kalighat+Park+%28South,+Kolkata,+West+Bengal+700026&ved=2ahUKEwiOg4aX37mEAxX054QAHXzUB3kQ48ADegUIABDQAQ","2nd Floor, 1A kalighat Park (South, Kolkata, West Bengal 700026",22.526608943847,88.342647968234,5,6:30 PM
Concord Services : Repair Service at Your Home,7278261694,https://lh5.googleusercontent.com/p/AF1QipOig63o6t8yfgaj_BWirbyHGzBI7HEy-d41oRPq=w114-h114-n-k-no,"https://maps.google.com/maps?um=1&fb=1&gl=in&sa=X&geocode=KTf4GyX2egI6Mc_W_VtC5eaV&daddr=C/32,+Anandanagar,+DAKSHIN+BEHALAROAD,+Kolkata,+West+Bengal+700061&ved=2ahUKEwiOg4aX37mEAxX054QAHXzUB3kQ48ADegUIABDaAQ","C/32, Anandanagar, DAKSHIN BEHALAROAD, Kolkata, West Bengal 700061",22.477870455673,88.301643479946,4.3,6:30 PM
S.S. HOME CARE,6291784442,https://lh5.googleusercontent.com/p/AF1QipNexn7AiG8sUBhH-Q1dEZiV-QNnW49Tx9Hub6Mh=w114-h114-n-k-no,"https://maps.google.com/maps?um=1&fb=1&gl=in&sa=X&geocode=Kc1URNfedwI6MfRf_8d5hFdj&daddr=Holding+Premises+no.+677+17/K/11,+Dakshindari+Road,+Kolkata,+Pin-700048,+Floor+-1st,+Ward+Number+35,+Kolkata,+West+Bengal+700048&ved=2ahUKEwiOg4aX37mEAxX054QAHXzUB3kQ48ADegUIABDiAQ","Holding Premises no. 677 17/K/11, Dakshindari Road, Kolkata, Pin-700048, Floor -1st, Ward Number 35, Kolkata, West Bengal 700048",22.594060009622,88.39403996635,4.3,10:00 PM
Proknock Management Services,7003874424,https://lh5.googleusercontent.com/p/AF1QipOw7wV2QgJD-bMhfj6osqlgNIUAXsEpJbOFOxHe=w114-h114-n-k-no,"https://maps.google.com/maps?um=1&fb=1&gl=in&sa=X&geocode=KduNB-OddwI6MXGBtbt4ux_0&daddr=5,+1,+Bondel+Rd,+Ballygunge+Place,+Ballygunge,+Kolkata,+West+Bengal+700019&ved=2ahUKEwji75ux37mEAxXK14QAHedjAHAQ48ADegQIABAt","5, 1, Bondel Rd, Ballygunge Place, Ballygunge, Kolkata, West Bengal 700019",22.529125239899,88.369055532708,4.8,6:30 PM
CLEAN MATES,9147019147,https://lh5.googleusercontent.com/p/AF1QipMsvBnfvyTefF0Loi8pLfiyqFYqeppl07TFqZHy=w114-h114-n-k-no,"https://maps.google.com/maps?um=1&fb=1&gl=in&sa=X&geocode=KeHswcX2dwI6Md5_e6UquLro&daddr=9,+Amita+Ghosh+Rd,+Garcha,+Ballygunge,+Kolkata,+West+Bengal+700029&ved=2ahUKEwji75ux37mEAxXK14QAHedjAHAQ48ADegQIABA4","9, Amita Ghosh Rd, Garcha, Ballygunge, Kolkata, West Bengal 700029",22.525060015044,88.353210039601,4.9,6:30 PM
Sunshine Home Painting Service,7278172759,https://lh5.googleusercontent.com/p/AF1QipOVvzWqaRZfoMzIIZzuXXY2O2fFEjnULmVRlKbB=w114-h114-n-k-no,"https://maps.google.com/maps?um=1&fb=1&gl=in&sa=X&geocode=KRfLUjg6dwI6MZDzr97ZnQiO&daddr=1,+Townsend+Road,+Bhawanipur,+Kolkata,+West+Bengal+700025&ved=2ahUKEwji75ux37mEAxXK14QAHedjAHAQ48ADegQIABBK","1, Townsend Road, Bhawanipur, Kolkata, West Bengal 700025",22.526540007687,88.346550030795,4.7,6:30 PM
Midas Cure: Home Health Care | Elder Care Services | Wellness & Senior Citizen Care Kolkata | Physiotherapy Clinic & Center,9830033334,//lh6.googleusercontent.com/proxy/5b1rSAL6YVPThiqEJHsA4BSSrfQy1ypv7tJhe3C0DMmFSLzbQD4jS1ZXhs0JkYS7IVYQib-k45eUhxCnpM3SCNLbUjlGDVc-WL9TdcLfuFyZ7j2OYIdev_AdW3mQhdU_LMXe5lzu0UeSeQAA6uBaKWFWZYg3wogxObPLW8PZHTiVCDbLzCy5Pw=w144-h144-n-k-no,"https://maps.google.com/maps?um=1&fb=1&gl=in&sa=X&geocode=KWH2htr8dQI6MbQdc177Yy-L&daddr=Gopalji+Mandir,+801+A,+Landmark:,+Block+A,+Lake+Town,+Kolkata,+South+Dumdum,+West+Bengal+700089&ved=2ahUKEwji75ux37mEAxXK14QAHedjAHAQ48ADegQIABBV","Gopalji Mandir, 801 A, Landmark:, Block A, Lake Town, Kolkata, South Dumdum, West Bengal 700089",22.610025881082,88.403709983625,4.5,6:30 PM
Cyborg Services - AC Repair Service in Kolkata | Fridge & Microwave Repairing,7044114444,https://lh5.googleusercontent.com/p/AF1QipPMp-tV2qGkOM033pyG_XFH9RJtjPPlScQOta4f=w114-h114-n-k-no,"https://maps.google.com/maps?um=1&fb=1&gl=in&sa=X&geocode=KQP2rMTadwI6MYBDnDwIvJmn&daddr=13,+Kedar+Bose+Ln,+Patuapara,+Bhowanipore,+Kolkata,+West+Bengal+700025&ved=2ahUKEwji75ux37mEAxXK14QAHedjAHAQ48ADegQIABBf","13, Kedar Bose Ln, Patuapara, Bhowanipore, Kolkata, West Bengal 700025",22.529921028568,88.345026512464,4.6,6:30 PM
60 Plus Care,9123060320,https://lh5.googleusercontent.com/p/AF1QipMK2tOpzXV9WyYWAO1LbIXInJKoOPuOHljaYNZr=w114-h114-n-k-no,"https://maps.google.com/maps?um=1&fb=1&gl=in&sa=X&geocode=KYXUijuqdwI6Md5G1rFf6c0H&daddr=H.no:1/46/5/1/2,+Plot+no:+808,+Naskarhat+Uttarpara+2nd+Lane,+Binay+Singh+Colony,+Tiljala,+Kolkata,+West+Bengal+700039&ved=2ahUKEwji75ux37mEAxXK14QAHedjAHAQ48ADegQIABBo","H.no:1/46/5/1/2, Plot no: 808, Naskarhat Uttarpara 2nd Lane, Binay Singh Colony, Tiljala, Kolkata, West Bengal 700039",22.531706271484,88.378147306221,4.9,6:30 PM
Rishi Cleaning,8617229627,https://lh5.googleusercontent.com/p/AF1QipMXGxxtR__IMUJjn2-KwgIlg7eTm1JnLammrioR=w114-h114-n-k-no,"https://maps.google.com/maps?um=1&fb=1&gl=in&sa=X&geocode=KefktiLWdgI6MQVZko5bao4o&daddr=8,+Garcha+1st+Ln,+Dover+Terrace,+Gariahat,+Kolkata,+West+Bengal+700019&ved=2ahUKEwji75ux37mEAxXK14QAHedjAHAQ48ADegQIABBw","8, Garcha 1st Ln, Dover Terrace, Gariahat, Kolkata, West Bengal 700019",22.521344937277,88.362462014084,4.5,06:00 PM
Swasthier Home Health Services,9674644445,https://lh5.googleusercontent.com/p/AF1QipM_niUflk-kQtfGtSz7N2Yw16bqD872xIL3jDHP=w114-h114-n-k-no,"https://maps.google.com/maps?um=1&fb=1&gl=in&sa=X&geocode=KfW4acQLdwI6MUbVigj0E1ti&daddr=Floor+Room+No+4A,+Camellia+Group,+Near+Central+Metro+Station,+34,+Chittaranjan+Avenue,+2nd,+Bowbazar,+Kolkata,+West+Bengal+700012&ved=2ahUKEwji75ux37mEAxXK14QAHedjAHAQ48ADegQIABB7","Floor Room No 4A, Camellia Group, Near Central Metro Station, 34, Chittaranjan Avenue, 2nd, Bowbazar, Kolkata, West Bengal 700012",22.56809,88.35751,4.4,6:30 PM
Blue Star,8697557400,https://lh5.googleusercontent.com/p/AF1QipNm70tFmXeKhAfg3d66O6DoYWNJdrR0YTGyYr-J=w114-h114-n-k-no,"https://maps.google.com/maps?um=1&fb=1&gl=in&sa=X&geocode=KfHIgLrwdwI6MU5ed0KipEfY&daddr=50A/H/2,+Pottery+Rd,+Seal+Lane,+Entally,+Kolkata,+West+Bengal+700015&ved=2ahUKEwji75ux37mEAxXK14QAHedjAHAQ48ADegUIABCEAQ","50A/H/2, Pottery Rd, Seal Lane, Entally, Kolkata, West Bengal 700015",22.555323847766,88.376340949479,4.7,08:00 PM
Appayan Healthcare,9836183730,https://lh5.googleusercontent.com/p/AF1QipMbYBmMFg14tXrJ7HVKgjOanjHLu4PgHidT1QFc=w114-h114-n-k-no,"https://maps.google.com/maps?um=1&fb=1&gl=in&sa=X&geocode=KSHr79iWdQI6MRxXqm00ihxF&daddr=Rabindrapally,+Kestopur,+Kolkata,+West+Bengal+700101&ved=2ahUKEwji75ux37mEAxXK14QAHedjAHAQ48ADegUIABCOAQ","Rabindrapally, Kestopur, Kolkata, West Bengal 700101",22.598369984235,88.42928000187,5,6:30 PM
Maa Tara Facility Service,8777293078,https://lh5.googleusercontent.com/p/AF1QipNYE1zfCRRENv2dZJ4FMPRSTxjWsxIEO8wi-s8Q=w114-h114-n-k-no,"https://maps.google.com/maps?um=1&fb=1&gl=in&sa=X&geocode=Kf2jSTINewI6MREyO4XyaP9e&daddr=113,+Narayan+Roy+Rd,+opposite+Behala+Fire+Station,+Udayan+Pally,+Barisha,+Kolkata,+West+Bengal+700008&ved=2ahUKEwji75ux37mEAxXK14QAHedjAHAQ48ADegUIABCUAQ","113, Narayan Roy Rd, opposite Behala Fire Station, Udayan Pally, Barisha, Kolkata, West Bengal 700008",22.477542789831,88.307784412288,4.9,09:00 PM
Home Massage Service,6291360819,https://streetviewpixels-pa.googleapis.com/v1/thumbnail?panoid=aU2GRgUhxOAK6__tmJg6cA&cb_client=geo_services_immersive.gps&w=144&h=144&yaw=243.77975&pitch=0&thumbfov=100,"https://maps.google.com/maps?um=1&fb=1&gl=in&sa=X&geocode=Kcfi4uiMn_g5MYWuERAl2MYK&daddr=Pd-98+,+pashimpara,+Arjunpur,+Kolkata,+West+Bengal+700059&ved=2ahUKEwji75ux37mEAxXK14QAHedjAHAQ48ADegUIABCfAQ","Pd-98 , pashimpara, Arjunpur, Kolkata, West Bengal 700059",22.625394942979,88.430603853333,4.5,6:30 PM
Fixit Home Service,8777242926,https://lh5.googleusercontent.com/p/AF1QipNRx1M6aHa7T8nVDVCHBaUOUihu1UBPSERq09cv=w114-h114-n-k-no,"https://maps.google.com/maps?um=1&fb=1&gl=in&sa=X&geocode=KcV8e3FldQI6MdVVBGdp809g&daddr=4,+H/17A,+Mathur+Babu+Ln,+Tangra,+Kolkata,+West+Bengal+700015&ved=2ahUKEwji75ux37mEAxXK14QAHedjAHAQ48ADegUIABCqAQ","4, H/17A, Mathur Babu Ln, Tangra, Kolkata, West Bengal 700015",22.560295192524,88.390091554987,4.5,6:30 PM
"Fix Your Tool - Microwave Oven Repairing in Kolkata | Best AC, Refrigerator Repair and Service in Kolkata",9163946313,https://lh5.googleusercontent.com/p/AF1QipMBszZiwA4dJbbPXQSooBRi9GMdPAqGU8X7Erap=w114-h114-n-k-no,"https://maps.google.com/maps?um=1&fb=1&gl=in&sa=X&geocode=KV2AFgU7dwI6MZxIL5hVdNVH&daddr=16/H/8,+Chamru+Singh+Ln,+Narkeldanga,+Kolkata,+West+Bengal+700011&ved=2ahUKEwji75ux37mEAxXK14QAHedjAHAQ48ADegUIABC1AQ","16/H/8, Chamru Singh Ln, Narkeldanga, Kolkata, West Bengal 700011",22.573590019054,88.378939967779,4.7,6:30 PM
Technology Infinity,9331033485,https://lh5.googleusercontent.com/p/AF1QipPufhRGD6fi4GJjUWjvE4bTo-exMfz5JxUeHnE9=w114-h114-n-k-no,"https://maps.google.com/maps?um=1&fb=1&gl=in&sa=X&geocode=KasWQC1UdwI6MSO37UQlWiya&daddr=Bureau+of+Industrial+Security+Services,+21A/1C,+Raja+Manindra+Rd,+Dutta+Bagan,+Paikpara,+Kolkata,+West+Bengal+700037&ved=2ahUKEwji75ux37mEAxXK14QAHedjAHAQ48ADegUIABC_AQ","Bureau of Industrial Security Services, 21A/1C, Raja Manindra Rd, Dutta Bagan, Paikpara, Kolkata, West Bengal 700037",22.611839996004,88.385429991589,4.6,6:30 PM
BISS World (Housekeeping\Cleaning and Facility Management Agency in Kolkata),9330522548,https://lh5.googleusercontent.com/p/AF1QipMWGTwq7HiBao_otTVRLf7R9cvNFaToQzxutaDh=w114-h114-n-k-no,"https://maps.google.com/maps?um=1&fb=1&gl=in&sa=X&geocode=Kb_P3u0PdwI6MelNdtPwpBgQ&daddr=62J,+Topsia+Rd,+Topsia,+Kolkata,+West+Bengal+700039&ved=2ahUKEwji75ux37mEAxXK14QAHedjAHAQ48ADegUIABDKAQ","62J, Topsia Rd, Topsia, Kolkata, West Bengal 700039",22.533760011445,88.386870002554,4.7,07:00 PM
Perfect Cooling Solution,9007019105,https://lh5.googleusercontent.com/p/AF1QipM8mx9TLtGgluAlAaqrx55z3qd2_fpE8c2OhvxL=w114-h114-n-k-no,"https://maps.google.com/maps?um=1&fb=1&gl=in&sa=X&geocode=KaXExfcrdwI6MQmbMqyZsgIX&daddr=33A,+Jawaharlal+Nehru+Road,+9A,+Chatterjee+International+Centre,+Park+Street,+Kolkata,+West+Bengal+700071&ved=2ahUKEwji75ux37mEAxXK14QAHedjAHAQ48ADegUIABDSAQ","33A, Jawaharlal Nehru Road, 9A, Chatterjee International Centre, Park Street, Kolkata, West Bengal 700071",22.55347,88.34981,4.9,6:30 PM
RainMan Service | Best Home Renovations Services in Kolkata,8334833306,https://lh5.googleusercontent.com/p/AF1QipMFgZnLK9vfxRb9MPEdC5ftkLj_94OXoP8UjLnQ=w114-h114-n-k-no,"https://maps.google.com/maps?um=1&fb=1&gl=in&sa=X&geocode=KZ8HfMx1dwI6MR1KZrKKb6WM&daddr=45b,+Anath+Nath+Deb+Ln,+Tala,+Block+C,+MIG+Housing,+Kolkata,+West+Bengal+700037&ved=2ahUKEwji75ux37mEAxXK14QAHedjAHAQ48ADegUIABDlAQ","45b, Anath Nath Deb Ln, Tala, Block C, MIG Housing, Kolkata, West Bengal 700037",22.609634233972,88.384886613539,3.4,6:30 PM
S.D.Cooling Point-Air conditioning repair service in kolkata,8420444771,https://lh5.googleusercontent.com/p/AF1QipMfsHDjX1ZxV5LCW1Jj6EyWsHTq4ntEx-PTBRBP=w114-h114-n-k-no,"https://maps.google.com/maps?um=1&fb=1&gl=in&sa=X&geocode=KQv2OWHqdwI6MSBWQoWlVdSi&daddr=45,+Tiljala+Masjid+Bari+Ln,+Kustia,+Kolkata,+West+Bengal+700039&ved=2ahUKEwiozJ3H37mEAxUV44QAHWRUD0EQ48ADegQIABAr","45, Tiljala Masjid Bari Ln, Kustia, Kolkata, West Bengal 700039",22.533862166769,88.378475207632,5,10:00 PM
Localyour,9836031188,https://lh5.googleusercontent.com/p/AF1QipNbtVvRXemROYgISPKZ748gn9WEHz0NpWhg37Rq=w114-h114-n-k-no,"https://maps.google.com/maps?um=1&fb=1&gl=in&sa=X&geocode=KY1cyMGYdwI6Mc_CvFRRyWBE&daddr=13H/1,+Elliot+Ln,+Ward+Number+61,+Kolkata,+West+Bengal+700016&ved=2ahUKEwiozJ3H37mEAxUV44QAHWRUD0EQ48ADegQIABA_","13H/1, Elliot Ln, Ward Number 61, Kolkata, West Bengal 700016",22.553150630053,88.359696063262,4.8,6:30 PM
Perfect Air Condition Repair & Services,8910907281,https://lh5.googleusercontent.com/p/AF1QipP_e_Fq_iOM6NJSQo-0_-M9pyyo8Fd3uXNIFcOr=w114-h114-n-k-no,"https://maps.google.com/maps?um=1&fb=1&gl=in&sa=X&geocode=KW2CY_dMnfg5Mbopy8CY-xGg&daddr=Flat+no+51+Sodepur+sukchar+bazaar+t+n+Mukherjee+lane,+GB+Dutta+Rd,+near:,+Kolkata,+West+Bengal+700115&ved=2ahUKEwiozJ3H37mEAxUV44QAHWRUD0EQ48ADegQIABBI","Flat no 51 Sodepur sukchar bazaar t n Mukherjee lane, GB Dutta Rd, near:, Kolkata, West Bengal 700115",22.70501143694,88.370433766741,4.9,09:00 PM
Washviya home cleaning services,6289488636,https://streetviewpixels-pa.googleapis.com/v1/thumbnail?panoid=T6UI6CCRUSZUdzFlBgMF2g&cb_client=geo_services_immersive.gps&w=144&h=144&yaw=238.03123&pitch=0&thumbfov=100,"https://maps.google.com/maps?um=1&fb=1&gl=in&sa=X&geocode=KfNkozUmdwI6MTfLthXXXQG8&daddr=Kundu+Bagan,+Beleghata,+Kolkata,+West+Bengal+700085&ved=2ahUKEwiozJ3H37mEAxUV44QAHWRUD0EQ48ADegQIABBR","Kundu Bagan, Beleghata, Kolkata, West Bengal 700085",22.570271699955,88.382446363132,4.2,6:30 PM
Raiyma beauty and hair home service,9051234887,https://lh5.googleusercontent.com/p/AF1QipPmY8VCa8v7onZJZk54uP_EpJxSHSmQ4bOzFdjH=w114-h114-n-k-no,"https://maps.google.com/maps?um=1&fb=1&gl=in&sa=X&geocode=Kf-CSeOodwI6Me2aIGKr-oNc&daddr=shop+%23+F105,+E+Mall,+1stfloor,+Chittaranjan+Ave,+Esplanade,+Chowringhee+North,+Bowbazar,+Kolkata,+West+Bengal+700072&ved=2ahUKEwiozJ3H37mEAxUV44QAHWRUD0EQ48ADegQIABBb","shop # F105, E Mall, 1stfloor, Chittaranjan Ave, Esplanade, Chowringhee North, Bowbazar, Kolkata, West Bengal 700072",22.56565774002,88.351729877695,5,6:30 PM
TAKECARE IT SOLUTION,8101516211,https://lh5.googleusercontent.com/p/AF1QipM19juHixWMlSTaUcPvnQv1uOIW8gIjtyHKS-bl=w114-h114-n-k-no,"https://maps.google.com/maps?um=1&fb=1&gl=in&sa=X&geocode=Ke3r7154dwI6MWWKPlYIu0_V&daddr=10B,+Chakraberia+Road+N,+Chakraberia,+Bhowanipore,+Kolkata,+West+Bengal+700020&ved=2ahUKEwiozJ3H37mEAxUV44QAHWRUD0EQ48ADegQIABBi","10B, Chakraberia Road N, Chakraberia, Bhowanipore, Kolkata, West Bengal 700020",22.533649998966,88.352049984202,4.9,6:30 PM
Easy Facility Services - Home Health Care Services,8583935110,https://lh5.googleusercontent.com/p/AF1QipP059qMzGePBVqPQ-DfjejFGmB9esmea2QMNS23=w114-h114-n-k-no,"https://maps.google.com/maps?um=1&fb=1&gl=in&sa=X&geocode=Kbcuf3UVcQI6Mfl6zTTCJEtS&daddr=B/70+East+Rajapur,+near+Nine+Star+Club,+Baghajatin+Place,+Survey+Park,+Santoshpur,+Kolkata,+West+Bengal+700075&ved=2ahUKEwiozJ3H37mEAxUV44QAHWRUD0EQ48ADegQIABBp","B/70 East Rajapur, near Nine Star Club, Baghajatin Place, Survey Park, Santoshpur, Kolkata, West Bengal 700075",22.487640014145,88.389629995632,5,6:30 PM
Care Service Centre,9831213497,https://lh5.googleusercontent.com/p/AF1QipPFnurl80f3HuDDlzkjor4AyCHM0j-TUrwVJR2i=w114-h114-n-k-no,"https://maps.google.com/maps?um=1&fb=1&gl=in&sa=X&geocode=KfO0G1lEdgI6MYfqyY3O6sPz&daddr=6,+Jagannath+Dutta+Ln,+Garpar,+Machuabazar,+Kolkata,+West+Bengal+700009&ved=2ahUKEwiozJ3H37mEAxUV44QAHWRUD0EQ48ADegQIABBz","6, Jagannath Dutta Ln, Garpar, Machuabazar, Kolkata, West Bengal 700009",22.579170019636,88.375410013076,3.9,6:30 PM
SS Enterprise,9836112557,https://lh5.googleusercontent.com/p/AF1QipMm3SDdrByVfY3k3--J_M4FtEO8FrMRdj2cVAyT=w114-h114-n-k-no,"https://maps.google.com/maps?um=1&fb=1&gl=in&sa=X&geocode=Ka1i1nYLcQI6MRaFgEEYs6FA&daddr=1,+Sadhu+Tara+Charan+Rd,+Sahanagar,+Kalighat,+Kolkata,+West+Bengal+700026&ved=2ahUKEwiozJ3H37mEAxUV44QAHWRUD0EQ48ADegQIABB7","1, Sadhu Tara Charan Rd, Sahanagar, Kalighat, Kolkata, West Bengal 700026",22.511056347753,88.340505173522,4.1,6:30 PM
Home services,9477229033,https://lh5.googleusercontent.com/p/AF1QipMXTFPoAU8Z_69bPPHtTY1mtJPHr7lYuWlDut_M=w114-h114-n-k-no,"https://maps.google.com/maps?um=1&fb=1&gl=in&sa=X&geocode=KXnqi3hMdwI6MW7lo8ewwV1P&daddr=5,+1B,+Hati+Bagan+Rd,+Entally,+Kolkata,+West+Bengal+700014&ved=2ahUKEwiozJ3H37mEAxUV44QAHWRUD0EQ48ADegUIABCFAQ","5, 1B, Hati Bagan Rd, Entally, Kolkata, West Bengal 700014",22.550827368601,88.371193203648,2,6:30 PM
Best Deep Cleaning Services in Kolkata-Favorz,9874241403,https://streetviewpixels-pa.googleapis.com/v1/thumbnail?panoid=zuL6HY4tbkaPdbaKxRKwAQ&cb_client=geo_services_immersive.gps&w=144&h=144&yaw=221.91284&pitch=0&thumbfov=100,"https://maps.google.com/maps?um=1&fb=1&gl=in&sa=X&geocode=KU1kij_kcQI6Mew11vuWRZTi&daddr=Panchasayar+Rd,+Sreenagar+West,+Srinagar,+jolpole,+Kolkata,+West+Bengal+700094&ved=2ahUKEwiozJ3H37mEAxUV44QAHWRUD0EQ48ADegUIABCSAQ","Panchasayar Rd, Sreenagar West, Srinagar, jolpole, Kolkata, West Bengal 700094",22.468560860098,88.403335087599,4.6,6:30 PM
TOWN SERVICE,9163946313,https://lh5.googleusercontent.com/p/AF1QipMj2W2uzIfLcEwf2dw7Z0o7JkOB3LUPoJnYwTIL=w114-h114-n-k-no,"https://maps.google.com/maps?um=1&fb=1&gl=in&sa=X&geocode=KblrcvobdwI6MQvsyX7zRuhO&daddr=girl+high+school,+52A,+Biplabi+Anukul+Chandra+St,+Chandni+Chawk,+Bowbazar,+Kolkata,+West+Bengal+700072&ved=2ahUKEwiozJ3H37mEAxUV44QAHWRUD0EQ48ADegUIABCdAQ","girl high school, 52A, Biplabi Anukul Chandra St, Chandni Chawk, Bowbazar, Kolkata, West Bengal 700072",22.566418750253,88.35635496882,4.9,10:00 PM
Kalyani Home Service & Nursing Aya Centre,9373389276,https://lh5.googleusercontent.com/p/AF1QipNQPXz9wasbVDrQeV_CNwQOPkkcBtDLGt7mwKT_=w114-h114-n-k-no,"https://maps.google.com/maps?um=1&fb=1&gl=in&sa=X&geocode=KQPhrNIRdwI6MUa3a4JHeL8A&daddr=5,+2S,+Tiljala+Rd,+Beniapukur,+Kolkata,+West+Bengal+700046&ved=2ahUKEwiozJ3H37mEAxUV44QAHWRUD0EQ48ADegUIABCnAQ","5, 2S, Tiljala Rd, Beniapukur, Kolkata, West Bengal 700046",22.542629992842,88.373010022739,5,09:00 PM
Technology infinity,8335084492,https://lh5.googleusercontent.com/p/AF1QipOooSrV60KbDhE4CFKVPg4HXRn-Dp5lM1rK4cVJ=w114-h114-n-k-no,"https://maps.google.com/maps?um=1&fb=1&gl=in&sa=X&geocode=KRFJERxxdwI6MdIWSG6Cdd7P&daddr=22/2/H/2,+Bright+St,+Park+Circus,+Ballygunge,+Kolkata,+West+Bengal+700017&ved=2ahUKEwiozJ3H37mEAxUV44QAHWRUD0EQ48ADegUIABCxAQ","22/2/H/2, Bright St, Park Circus, Ballygunge, Kolkata, West Bengal 700017",22.540399987502,88.367160041056,5,6:30 PM
Kolkata Contractors,9831027546,https://lh5.googleusercontent.com/p/AF1QipNWZqVAwF4XR20NfjaW7YL6QRO0n2Kst9z0m6DI=w114-h114-n-k-no,"https://maps.google.com/maps?um=1&fb=1&gl=in&sa=X&geocode=KZ9o2jrXdwI6MeB33huT7fT9&daddr=H9F7%2B3H6,+Cossipore,+Lalbajar,+College+Square,+Kolkata,+West+Bengal+700012&ved=2ahUKEwiozJ3H37mEAxUV44QAHWRUD0EQ48ADegUIABC4AQ","H9F7+3H6, Cossipore, Lalbajar, College Square, Kolkata, West Bengal 700012",22.572542402489,88.364653040279,5,06:00 PM
Technology Infinity,9163946313,https://lh5.googleusercontent.com/p/AF1QipNjatfM3d6wBd-jl3EB9f35UbP_yNbYNq2YMHrb=w114-h114-n-k-no,"https://maps.google.com/maps?um=1&fb=1&gl=in&sa=X&geocode=KbshNeKGdwI6MflQVyoWKdBO&daddr=3+Floor,+125,+Old+China+Bazar+St,+China+Bazar,+Kolkata,+West+Bengal+700001&ved=2ahUKEwiU0ZzY37mEAxUA6IQAHapBDIwQ48ADegQIABAt","3 Floor, 125, Old China Bazar St, China Bazar, Kolkata, West Bengal 700001",22.577619073316,88.351062333066,5,10:00 PM
Kashyap Trading Co : Pest control services in Kolkata,9830531433,https://lh5.googleusercontent.com/p/AF1QipMRnvFH3GELpohkN1dvXmva2tEu-498L9Jq8gWO=w114-h114-n-k-no,"https://maps.google.com/maps?um=1&fb=1&gl=in&sa=X&geocode=KR0ywsCudwI6MYRuO347obn6&daddr=45,+Bepin+Behari+Ganguly+St,+Poddar+Court,+Bowbazar,+Kolkata,+West+Bengal+700012&ved=2ahUKEwiU0ZzY37mEAxUA6IQAHapBDIwQ48ADegQIABA2","45, Bepin Behari Ganguly St, Poddar Court, Bowbazar, Kolkata, West Bengal 700012",22.570529995752,88.357099997046,4.8,6:30 PM
Rainbow Home Painting Service,8296384445,https://lh5.googleusercontent.com/p/AF1QipOAeSWgUxP9jQVN6mN9JSdYeCkB7PoFrvYumnNC=w114-h114-n-k-no,"https://maps.google.com/maps?um=1&fb=1&gl=in&sa=X&geocode=KWNyQP95cQI6MQS5kZaTXNTY&daddr=20,+2,+Kalikapur+Rd,+North+Purbachal,+Haltu,+Kolkata,+West+Bengal+700099&ved=2ahUKEwiU0ZzY37mEAxUA6IQAHapBDIwQ48ADegQIABA9","20, 2, Kalikapur Rd, North Purbachal, Haltu, Kolkata, West Bengal 700099",22.500449992949,88.394340038483,5,08:00 PM
Smart Home Plus,8327431053,https://streetviewpixels-pa.googleapis.com/v1/thumbnail?panoid=ouUjJpF3o-t-tXA2qOulwg&cb_client=geo_services_immersive.gps&w=144&h=144&yaw=203.76634&pitch=0&thumbfov=100,"https://maps.google.com/maps?um=1&fb=1&gl=in&sa=X&geocode=KW_UOv0HdgI6MXj_tTYJAaVP&daddr=17,+11/3,+Dakshindari+Rd,+Lahabagan,+Sreebhumi,+Lake+Town,+South+Dumdum,+West+Bengal+700048&ved=2ahUKEwiU0ZzY37mEAxUA6IQAHapBDIwQ48ADegQIABBE","17, 11/3, Dakshindari Rd, Lahabagan, Sreebhumi, Lake Town, South Dumdum, West Bengal 700048",22.599859993253,88.400950007327,5,6:30 PM
HOME APPLIANCES REPAIRING CENTER( CHANDRAYEE ENTERPRISE),9432342385,https://lh5.googleusercontent.com/p/AF1QipNzx36yTmiHCyRjxLNyDtPLtKOkYNIZS7Qs95fi=w114-h114-n-k-no,"https://maps.google.com/maps?um=1&fb=1&gl=in&sa=X&geocode=KXVuQkyLcQI6MUhh6_-bbJ5q&daddr=37/4A,+SN+Roy+Rd,+Sahapur,+New+Alipore,+Kolkata,+West+Bengal+700038&ved=2ahUKEwiU0ZzY37mEAxUA6IQAHapBDIwQ48ADegQIABBN","37/4A, SN Roy Rd, Sahapur, New Alipore, Kolkata, West Bengal 700038",22.507650005868,88.321370039285,5,07:00 PM
Home,18001039050,https://lh5.googleusercontent.com/p/AF1QipMDJ7ZYqVQFvPGE1X82YYX1Qhpd8_ISE2_ORIUt=w114-h114-n-k-no,"https://maps.google.com/maps?um=1&fb=1&gl=in&sa=X&geocode=KT06YkpUdQI6MQY14qFLvLrX&daddr=HCF9%2BPPG,+HC+Block,+Sector+3,+Bidhannagar,+Kolkata,+West+Bengal+700106&ved=2ahUKEwiU0ZzY37mEAxUA6IQAHapBDIwQ48ADegQIABBT","HCF9+PPG, HC Block, Sector 3, Bidhannagar, Kolkata, West Bengal 700106",22.57361423588,88.419003850251,1,6:30 PM
Ask Me Services,9062299202,https://lh5.googleusercontent.com/p/AF1QipOxZrLzcyyHnAiIlfMwSn8bTDMQP9_FGzZu92Jy=w114-h114-n-k-no,"https://maps.google.com/maps?um=1&fb=1&gl=in&sa=X&geocode=KQ16oSoZcQI6MZQBNaZeuVCF&daddr=uponagari+market,+Patuli,+Ward+Number+101,+Kolkata,+West+Bengal+700086&ved=2ahUKEwiU0ZzY37mEAxUA6IQAHapBDIwQ48ADegQIABBZ","uponagari market, Patuli, Ward Number 101, Kolkata, West Bengal 700086",22.47774,88.381228579,5,6:30 PM
Home Healthcare Services Co,8017107268,https://streetviewpixels-pa.googleapis.com/v1/thumbnail?panoid=NBjx-ex9mzmbz8UOTdlHRg&cb_client=geo_services_immersive.gps&w=144&h=144&yaw=220.6125&pitch=0&thumbfov=100,"https://maps.google.com/maps?um=1&fb=1&gl=in&sa=X&geocode=KRsKZL8AdwI6MSZNbgW45HFk&daddr=FE5,+Sector+3,+Salt+Lake,+Kolkata,+700106&ved=2ahUKEwiU0ZzY37mEAxUA6IQAHapBDIwQ48ADegQIABBg","FE5, Sector 3, Salt Lake, Kolkata, 700106",22.576257915657,88.4168194844,3.1,6:30 PM
KOLKATA NURS AIYA MEDS APPLIANCE REPAIR SERVICE SERVICE KOLKATA,9831670251,https://streetviewpixels-pa.googleapis.com/v1/thumbnail?panoid=KFI2hvuNo8rDSDsWNp3kvw&cb_client=geo_services_immersive.gps&w=144&h=144&yaw=73.510635&pitch=0&thumbfov=100,"https://maps.google.com/maps?um=1&fb=1&gl=in&sa=X&geocode=Kcmqqlb0cAI6McsrfUOo5PFN&daddr=74,+Sahapara+-+Fartabad+Rd,+Thakur+Para,+Sahapara,+porba+putari,+Kolkata,+West+Bengal+700093&ved=2ahUKEwiU0ZzY37mEAxUA6IQAHapBDIwQ48ADegQIABBo","74, Sahapara - Fartabad Rd, Thakur Para, Sahapara, porba putari, Kolkata, West Bengal 700093",22.466069982604,88.375429962005,5,6:30 PM
Home Sweet home,9831945560,https://streetviewpixels-pa.googleapis.com/v1/thumbnail?panoid=RBXd8QQg9MKVcAT28jexOQ&cb_client=geo_services_immersive.gps&w=144&h=144&yaw=207.52019&pitch=0&thumbfov=100,"https://maps.google.com/maps?um=1&fb=1&gl=in&sa=X&geocode=Kc10PggedwI6MfuCHpX7ZbOJ&daddr=H97H%2BGG2,+S+Sealdah+Rd,+Munshi+Bazar,+Seal+Lane,+Tangra,+Kolkata,+West+Bengal+700015&ved=2ahUKEwiU0ZzY37mEAxUA6IQAHapBDIwQ48ADegQIABBv","H97H+GG2, S Sealdah Rd, Munshi Bazar, Seal Lane, Tangra, Kolkata, West Bengal 700015",22.557309069772,88.383584904679,3.9,6:30 PM
Urmila Home Care Service,9830927894,https://lh5.googleusercontent.com/p/AF1QipNEG3VjiA3UO6sJhFgJkqYu_c9aDTLaRzDuIIJQ=w114-h114-n-k-no,"https://maps.google.com/maps?um=1&fb=1&gl=in&sa=X&geocode=KekzBHsAdQI6MQcuREvZhO3Z&daddr=H-117,+Sukant+Nagar,+Sector+IV,+Bidhannagar,+Kolkata,+West+Bengal+700098&ved=2ahUKEwiU0ZzY37mEAxUA6IQAHapBDIwQ48ADegQIABB1","H-117, Sukant Nagar, Sector IV, Bidhannagar, Kolkata, West Bengal 700098",22.566012056961,88.412030942298,4.3,08:00 PM
Home Care Center,7595038510,https://lh5.googleusercontent.com/p/AF1QipOL_mDVsYmRo7dD59LkgFz7Vny37-mJXjcmZ1Gd=w114-h114-n-k-no,"https://maps.google.com/maps?um=1&fb=1&gl=in&sa=X&geocode=KX3s3yopdwI6MZTFXnf4CmCe&daddr=B/6/19/H/1+Rameshwar,+Road,+Show,+Kolkata,+West+Bengal+700014&ved=2ahUKEwiU0ZzY37mEAxUA6IQAHapBDIwQ48ADegQIABB7","B/6/19/H/1 Rameshwar, Road, Show, Kolkata, West Bengal 700014",22.547685356261,88.371842733084,4.7,08:00 PM
Home Care Renovations,9830927894,https://lh5.googleusercontent.com/p/AF1QipPePW9PK3sdpwzQDP4KIzfkbVPV6xawJu3kD-E5=w114-h114-n-k-no,"https://maps.google.com/maps?um=1&fb=1&gl=in&sa=X&geocode=KS8r952wnfg5MdJ5cBdryXHv&daddr=Bonhoogly+1+Mollick+Bari+PS+Narendrapur,+Dist+Panchur+Gazi+Para+Road,+Baranagar,+West+Bengal+700103&ved=2ahUKEwihxczr37mEAxWQ54QAHTGdDhgQ48ADegQIABAs","Bonhoogly 1 Mollick Bari PS Narendrapur, Dist Panchur Gazi Para Road, Baranagar, West Bengal 700103",22.439778659923,88.404182502162,4.7,10:00 PM
Calcutta Security,9831945560,https://lh5.googleusercontent.com/p/AF1QipODS6XEN5FOLtR-sM5pRTHvDdLH10XDfjzHkGZ2=w114-h114-n-k-no,"https://maps.google.com/maps?um=1&fb=1&gl=in&sa=X&geocode=KYMHaMZ9dgI6MZxtHa1YLPgH&daddr=13,+Badan+Roy+Ln,+CIT+More,+Subhas+Sarobar+Park,+Phool+Bagan,+Beleghata,+Kolkata,+West+Bengal+700010&ved=2ahUKEwihxczr37mEAxWQ54QAHTGdDhgQ48ADegQIABA3","13, Badan Roy Ln, CIT More, Subhas Sarobar Park, Phool Bagan, Beleghata, Kolkata, West Bengal 700010",22.566670003611,88.396669998018,4.3,6:30 PM
Endless Service,7595038510,https://lh5.googleusercontent.com/p/AF1QipOLQ6W3N_wvHUaNzAA3wUmJ8LVzJtRgDHqR8MAv=w114-h114-n-k-no,"https://maps.google.com/maps?um=1&fb=1&gl=in&sa=X&geocode=KbF8rc0_CQI6MffATq5IFVKK&daddr=Champagachi,Rajarhat,+opposite+Champagachi+High+School,+Mouza+Chandpur,+Vedic+Village,+Kolkata,+Chandpur,+West+Bengal+700135&ved=2ahUKEwihxczr37mEAxWQ54QAHTGdDhgQ48ADegQIABBC","Champagachi,Rajarhat, opposite Champagachi High School, Mouza Chandpur, Vedic Village, Kolkata, Chandpur, West Bengal 700135",22.633589987007,88.462130021519,4.7,6:30 PM
AT Services,7439635885,https://streetviewpixels-pa.googleapis.com/v1/thumbnail?panoid=XCmln-XFf1NHfKVqZuVncw&cb_client=geo_services_immersive.gps&w=144&h=144&yaw=275.80722&pitch=0&thumbfov=100,"https://maps.google.com/maps?um=1&fb=1&gl=in&sa=X&geocode=Kf-lJCq8dwI6MUNmv-tnoy6Y&daddr=284,+CIT+Rd,+Scheme+VI-M,+Phool+Bagan,+Kankurgachi,+Kolkata,+West+Bengal+700085&ved=2ahUKEwihxczr37mEAxWQ54QAHTGdDhgQ48ADegQIABBJ","284, CIT Rd, Scheme VI-M, Phool Bagan, Kankurgachi, Kolkata, West Bengal 700085",22.575929994963,88.39168004151,5,6:30 PM
Hiranmoy Service Center,9836130712,https://streetviewpixels-pa.googleapis.com/v1/thumbnail?panoid=COOuHMeaN9e6DhEg-ouMKA&cb_client=geo_services_immersive.gps&w=144&h=144&yaw=7.3443694&pitch=0&thumbfov=100,"https://maps.google.com/maps?um=1&fb=1&gl=in&sa=X&geocode=Keds9USxdwI6McCKbSDoIgt7&daddr=9F,+Geetanjali+Apartments,+8B,+Middleton+St,+Park+Street+area,+Kolkata,+West+Bengal+700071&ved=2ahUKEwihxczr37mEAxWQ54QAHTGdDhgQ48ADegQIABBP","9F, Geetanjali Apartments, 8B, Middleton St, Park Street area, Kolkata, West Bengal 700071",22.54876001391,88.352520041332,5,6:30 PM
MOD CONS,9836010003,https://lh5.googleusercontent.com/p/AF1QipPVwG7Cp01Jmy59UVFnvB5j1sc0jAC4krXGTknE=w114-h114-n-k-no,"https://maps.google.com/maps?um=1&fb=1&gl=in&sa=X&geocode=KSmJlSThdwI6McNuZuWKw5kv&daddr=19/1A,+Beleghata+Main+Rd,+Kulia,+Beleghata,+Kolkata,+West+Bengal+700010&ved=2ahUKEwihxczr37mEAxWQ54QAHTGdDhgQ48ADegQIABBX","19/1A, Beleghata Main Rd, Kulia, Beleghata, Kolkata, West Bengal 700010",22.570009982479,88.389739966201,4.8,6:30 PM
INAAYA INTERIOR-Home Interior Designer in Kolkata,3379637253,https://lh5.googleusercontent.com/p/AF1QipPS4ly_eRRWNVKJZbmlOdLXqzxJFB7l8l542MGp=w114-h114-n-k-no,"https://maps.google.com/maps?um=1&fb=1&gl=in&sa=X&geocode=KaeuFFrbdwI6MXMpOKK0uq-w&daddr=20,+Kalidas+Patitundi+Ln,+Hazra,+Kalighat,+Kolkata,+West+Bengal+700026&ved=2ahUKEwihxczr37mEAxWQ54QAHTGdDhgQ48ADegQIABBi","20, Kalidas Patitundi Ln, Hazra, Kalighat, Kolkata, West Bengal 700026",22.523179996071,88.344850013193,4.8,6:30 PM
.,9831740698,https://streetviewpixels-pa.googleapis.com/v1/thumbnail?panoid=X8oTB_KSA3aAcA1swLE5-A&cb_client=geo_services_immersive.gps&w=144&h=144&yaw=149.89238&pitch=0&thumbfov=100,"https://maps.google.com/maps?um=1&fb=1&gl=in&sa=X&geocode=KfEymLfHcQI6McNV7HdqFlAe&daddr=23,KHETRA+MOHAN+NASKAR+ROAD,REGENT+PARK,+Tollygunge,+Kolkata,+West+Bengal+700040&ved=2ahUKEwihxczr37mEAxWQ54QAHTGdDhgQ48ADegQIABBp","23,KHETRA MOHAN NASKAR ROAD,REGENT PARK, Tollygunge, Kolkata, West Bengal 700040",22.4845401283,88.347850302247,5,6:30 PM
"Sollfege - Premium Home Audio,Video,Automation",7044768650,https://lh5.googleusercontent.com/p/AF1QipMn_lZNRoe2emDWfXgXgLUb5QgkoaMA-abvAPaW=w114-h114-n-k-no,"https://maps.google.com/maps?um=1&fb=1&gl=in&sa=X&geocode=KYGq23YldwI6Md0-b2IQPYHk&daddr=1st+Floor,+Ho+Chi+Minh+Sarani+Rd,+Kankaria+Estates,+Park+Street+area,+Kolkata,+West+Bengal+700071&ved=2ahUKEwihxczr37mEAxWQ54QAHTGdDhgQ48ADegQIABBy","1st Floor, Ho Chi Minh Sarani Rd, Kankaria Estates, Park Street area, Kolkata, West Bengal 700071",22.54894,88.35065,3.2,09:00 PM
Jaachaai: Care Provider|Plumber|Gardener|Driver|Maids|Ayah Service in Tollygunge,7604012222,https://streetviewpixels-pa.googleapis.com/v1/thumbnail?panoid=K0Lh1kEK0TBqUBKKkpGyew&cb_client=geo_services_immersive.gps&w=144&h=144&yaw=135.8667&pitch=0&thumbfov=100,"https://maps.google.com/maps?um=1&fb=1&gl=in&sa=X&geocode=KUmf1oSZcQI6MQlnLX8fSmdz&daddr=29/6,+Golf+Club+Rd,+beside+Bangur+High+School,+Rajendra+Prasad+Colony,+Tollygunge,+Kolkata,+West+Bengal+700033&ved=2ahUKEwihxczr37mEAxWQ54QAHTGdDhgQ48ADegQIABB5","29/6, Golf Club Rd, beside Bangur High School, Rajendra Prasad Colony, Tollygunge, Kolkata, West Bengal 700033",22.497299989917,88.346239984197,4.2,6:30 PM
Nayan-Moni Security Service Nurse & Aya Centre,3324881559,https://streetviewpixels-pa.googleapis.com/v1/thumbnail?panoid=rfjKU90zLsPx59titr5gSg&cb_client=geo_services_immersive.gps&w=144&h=144&yaw=228.0543&pitch=0&thumbfov=100,"https://maps.google.com/maps?um=1&fb=1&gl=in&sa=X&geocode=KY33zgATdwI6MYYO_gy2ri_N&daddr=42/C,+Serpentine+Ln,+Lebutala,+Bowbazar,+Kolkata,+West+Bengal+700014&ved=2ahUKEwihxczr37mEAxWQ54QAHTGdDhgQ48ADegUIABCBAQ","42/C, Serpentine Ln, Lebutala, Bowbazar, Kolkata, West Bengal 700014",22.564265910134,88.364878759362,5,6:30 PM
"Arctic Refrigeration - AC Repair Service, AC On Rent in Kolkata",8777580051,https://lh5.googleusercontent.com/p/AF1QipMlcYVkERvDa1rv9_PIUew_wnzSBYa-4tVk2zEG=w114-h114-n-k-no,"https://maps.google.com/maps?um=1&fb=1&gl=in&sa=X&geocode=KWcrcoH8dgI6MVk1_34AlGXs&daddr=3,+1,+H/11Sir,+Syed+Ahmed+Raod,+Entally,+Kolkata,+West+Bengal+700014&ved=2ahUKEwihxczr37mEAxWQ54QAHTGdDhgQ48ADegUIABCLAQ","3, 1, H/11Sir, Syed Ahmed Raod, Entally, Kolkata, West Bengal 700014",22.553250842634,88.369276197771,4.6,6:30 PM
